[{"datasetid": "worldcitiespop", "recordid": "73dfd8be1ee17733e0cbdaa709f50d94422ae7eb", "fields": {"city": "otwock", "country": "pl", "region": "78", "geopoint": [52.118856, 21.308008], "longitude": 21.308008, "latitude": 52.118856, "accentcity": "Otwock", "population": 42776}, "geometry": {"type": "Point", "coordinates": [21.308008, 52.118856]}, "record_timestamp": "2018-01-08T12:47:45+01:00"},{"datasetid": "worldcitiespop", "recordid": "01b5023c1c0f4f5b9b84705b9c98bfcfeab9bfbb", "fields": {"city": "krasnik", "country": "pl", "region": "75", "geopoint": [50.922758, 22.22648], "longitude": 22.22648, "latitude": 50.922758, "accentcity": "Krasnik", "population": 35834}, "geometry": {"type": "Point", "coordinates": [22.22648, 50.922758]}, "record_timestamp": "2018-01-08T12:47:45+01:00"},{"datasetid": "worldcitiespop", "recordid": "aa57a75c3d87c61a9ad7f46a99682ae84b1c17e7", "fields": {"city": "lomza", "country": "pl", "region": "81", "geopoint": [53.173552, 22.06538], "longitude": 22.06538, "latitude": 53.173552, "accentcity": "Lomza", "population": 63723}, "geometry": {"type": "Point", "coordinates": [22.06538, 53.173552]}, "record_timestamp": "2018-01-08T12:47:45+01:00"},{"datasetid": "worldcitiespop", "recordid": "d1e45e9f4dc606af72fbfa39250eb82abd867d02", "fields": {"city": "nisko", "country": "pl", "region": "80", "geopoint": [50.518509, 22.144659], "longitude": 22.144659, "latitude": 50.518509, "accentcity": "Nisko", "population": 15573}, "geometry": {"type": "Point", "coordinates": [22.144659, 50.518509]}, "record_timestamp": "2018-01-08T12:47:45+01:00"},{"datasetid": "worldcitiespop", "recordid": "ef609933a4bc030e08e839b7eb3d10201d17815f", "fields": {"city": "nowa deba", "country": "pl", "region": "80", "geopoint": [50.427778, 21.750328], "longitude": 21.750328, "latitude": 50.427778, "accentcity": "Nowa Deba", "population": 11489}, "geometry": {"type": "Point", "coordinates": [21.750328, 50.427778]}, "record_timestamp": "2018-01-08T12:47:45+01:00"},{"datasetid": "worldcitiespop", "recordid": "1d218bb8e9e5f1f6b6c4462d069525b5af86264b", "fields": {"city": "todi", "country": "it", "region": "18", "geopoint": [42.783333, 12.4], "longitude": 12.4, "latitude": 42.783333, "accentcity": "Todi", "population": 17321}, "geometry": {"type": "Point", "coordinates": [12.4, 42.783333]}, "record_timestamp": "2018-01-08T12:47:45+01:00"},{"datasetid": "worldcitiespop", "recordid": "96e08facf0483c95137f133b7f1e659fae3858a5", "fields": {"city": "chojnice", "country": "pl", "region": "82", "geopoint": [53.695062, 17.566093], "longitude": 17.566093, "latitude": 53.695062, "accentcity": "Chojnice", "population": 39407}, "geometry": {"type": "Point", "coordinates": [17.566093, 53.695062]}, "record_timestamp": "2018-01-08T12:47:45+01:00"},{"datasetid": "worldcitiespop", "recordid": "e10166a835b9eb61ee2bb7d1f49ecde445c8da98", "fields": {"city": "chrzanow", "country": "pl", "region": "77", "geopoint": [50.139468, 19.40626], "longitude": 19.40626, "latitude": 50.139468, "accentcity": "Chrzanow", "population": 39973}, "geometry": {"type": "Point", "coordinates": [19.40626, 50.139468]}, "record_timestamp": "2018-01-08T12:47:45+01:00"},{"datasetid": "worldcitiespop", "recordid": "6f3ef3803b0bfb737ec39cad2336c1ec8fcf3648", "fields": {"city": "woudrichem", "country": "nl", "region": "06", "geopoint": [51.811967, 4.99719], "longitude": 4.99719, "latitude": 51.811967, "accentcity": "Woudrichem", "population": 14762}, "geometry": {"type": "Point", "coordinates": [4.99719, 51.811967]}, "record_timestamp": "2018-01-08T12:47:45+01:00"},{"datasetid": "worldcitiespop", "recordid": "5fd8dc2369a28085459b6db82eeb6000322b028b", "fields": {"city": "zeewolde", "country": "nl", "region": "16", "geopoint": [52.330224, 5.536412], "longitude": 5.536412, "latitude": 52.330224, "accentcity": "Zeewolde", "population": 22932}, "geometry": {"type": "Point", "coordinates": [5.536412, 52.330224]}, "record_timestamp": "2018-01-08T12:47:45+01:00"},{"datasetid": "worldcitiespop", "recordid": "5ad4d89389d6f3468eb8a61a9f74ef07653b2768", "fields": {"city": "vaals", "country": "nl", "region": "05", "geopoint": [50.769835, 5.994864], "longitude": 5.994864, "latitude": 50.769835, "accentcity": "Vaals", "population": 10679}, "geometry": {"type": "Point", "coordinates": [5.994864, 50.769835]}, "record_timestamp": "2018-01-08T12:47:45+01:00"},{"datasetid": "worldcitiespop", "recordid": "3a8806e9d327bbd4bfb9861747d901a312add5d8", "fields": {"city": "vianen", "country": "nl", "region": "11", "geopoint": [51.987057, 5.095258], "longitude": 5.095258, "latitude": 51.987057, "accentcity": "Vianen", "population": 20029}, "geometry": {"type": "Point", "coordinates": [5.095258, 51.987057]}, "record_timestamp": "2018-01-08T12:47:45+01:00"},{"datasetid": "worldcitiespop", "recordid": "d8f0d7ca062fb2c76458f9e7879a59e755565779", "fields": {"city": "vlissingen", "country": "nl", "region": "10", "geopoint": [51.449399, 3.572279], "longitude": 3.572279, "latitude": 51.449399, "accentcity": "Vlissingen", "population": 45816}, "geometry": {"type": "Point", "coordinates": [3.572279, 51.449399]}, "record_timestamp": "2018-01-08T12:47:45+01:00"},{"datasetid": "worldcitiespop", "recordid": "b4035446a833829b44644199692719b6efaa0b4a", "fields": {"city": "vught", "country": "nl", "region": "06", "geopoint": [51.655197, 5.294188], "longitude": 5.294188, "latitude": 51.655197, "accentcity": "Vught", "population": 26082}, "geometry": {"type": "Point", "coordinates": [5.294188, 51.655197]}, "record_timestamp": "2018-01-08T12:47:45+01:00"},{"datasetid": "worldcitiespop", "recordid": "7e8964a24395c8aad574e4c4f24577546bd8c76c", "fields": {"city": "roosendaal", "country": "nl", "region": "06", "geopoint": [51.537721, 4.492456], "longitude": 4.492456, "latitude": 51.537721, "accentcity": "Roosendaal", "population": 81228}, "geometry": {"type": "Point", "coordinates": [4.492456, 51.537721]}, "record_timestamp": "2018-01-08T12:47:45+01:00"},{"datasetid": "worldcitiespop", "recordid": "d54c65360fc4f6cdad8691c844cf72f036480d64", "fields": {"city": "loon op zand", "country": "nl", "region": "06", "geopoint": [51.629225, 5.072734], "longitude": 5.072734, "latitude": 51.629225, "accentcity": "Loon op Zand", "population": 23408}, "geometry": {"type": "Point", "coordinates": [5.072734, 51.629225]}, "record_timestamp": "2018-01-08T12:47:45+01:00"},{"datasetid": "worldcitiespop", "recordid": "0570acaf3c7fcf88a8a27fb112ba9fe6cec7a773", "fields": {"city": "castiglione del lago", "country": "it", "region": "18", "geopoint": [43.116667, 12.05], "longitude": 12.05, "latitude": 43.116667, "accentcity": "Castiglione del Lago", "population": 15309}, "geometry": {"type": "Point", "coordinates": [12.05, 43.116667]}, "record_timestamp": "2018-01-08T12:47:45+01:00"},{"datasetid": "worldcitiespop", "recordid": "936a79b98a4ecb40e862ec708d50c6eadbf2fbc1", "fields": {"city": "chiari", "country": "it", "region": "09", "geopoint": [45.533333, 9.933333], "longitude": 9.933333, "latitude": 45.533333, "accentcity": "Chiari", "population": 18414}, "geometry": {"type": "Point", "coordinates": [9.933333, 45.533333]}, "record_timestamp": "2018-01-08T12:47:45+01:00"},{"datasetid": "worldcitiespop", "recordid": "8619e9397f39a2a2fab5ecb0b5cca7e6c4f2d487", "fields": {"city": "klobuck", "country": "pl", "region": "83", "geopoint": [50.90298, 18.937036], "longitude": 18.937036, "latitude": 50.90298, "accentcity": "Klobuck", "population": 13190}, "geometry": {"type": "Point", "coordinates": [18.937036, 50.90298]}, "record_timestamp": "2018-01-08T12:47:45+01:00"},{"datasetid": "worldcitiespop", "recordid": "07a29dae7eb41e412c3b65c740924ceb480d6870", "fields": {"city": "gdansk", "country": "pl", "region": "82", "geopoint": [54.36085, 18.658291], "longitude": 18.658291, "latitude": 54.36085, "accentcity": "Gdansk", "population": 461865}, "geometry": {"type": "Point", "coordinates": [18.658291, 54.36085]}, "record_timestamp": "2018-01-08T12:47:45+01:00"},{"datasetid": "worldcitiespop", "recordid": "8e581f3e5f04b5ee60df974a18f22009210ae7b7", "fields": {"city": "mazara del vallo", "country": "it", "region": "15", "geopoint": [37.65, 12.583333], "longitude": 12.583333, "latitude": 37.65, "accentcity": "Mazara del Vallo", "population": 50979}, "geometry": {"type": "Point", "coordinates": [12.583333, 37.65]}, "record_timestamp": "2018-01-08T12:47:45+01:00"},{"datasetid": "worldcitiespop", "recordid": "0a56e9ab7c66ce5ad523a4743fada3831c63c6d5", "fields": {"city": "melzo", "country": "it", "region": "09", "geopoint": [45.5, 9.416667], "longitude": 9.416667, "latitude": 45.5, "accentcity": "Melzo", "population": 19453}, "geometry": {"type": "Point", "coordinates": [9.416667, 45.5]}, "record_timestamp": "2018-01-08T12:47:45+01:00"},{"datasetid": "worldcitiespop", "recordid": "70494447f644771e91258366806f58c948c380c6", "fields": {"city": "mondovi", "country": "it", "region": "12", "geopoint": [44.383333, 7.816667], "longitude": 7.816667, "latitude": 44.383333, "accentcity": "Mondov\u00ec", "population": 22457}, "geometry": {"type": "Point", "coordinates": [7.816667, 44.383333]}, "record_timestamp": "2018-01-08T12:47:45+01:00"},{"datasetid": "worldcitiespop", "recordid": "b561434c7f1bc42044180e78634d10cde38b4d73", "fields": {"city": "gioia del colle", "country": "it", "region": "13", "geopoint": [40.8, 16.916667], "longitude": 16.916667, "latitude": 40.8, "accentcity": "Gioia del Colle", "population": 26205}, "geometry": {"type": "Point", "coordinates": [16.916667, 40.8]}, "record_timestamp": "2018-01-08T12:47:45+01:00"},{"datasetid": "worldcitiespop", "recordid": "12afa09eeb58a80800c589e22f7009b06c950417", "fields": {"city": "grugliasco", "country": "it", "region": "12", "geopoint": [45.066667, 7.583333], "longitude": 7.583333, "latitude": 45.066667, "accentcity": "Grugliasco", "population": 37599}, "geometry": {"type": "Point", "coordinates": [7.583333, 45.066667]}, "record_timestamp": "2018-01-08T12:47:45+01:00"},{"datasetid": "worldcitiespop", "recordid": "c1e2ff050c87dbb080d2cadc625bbce541814776", "fields": {"city": "naples", "country": "it", "region": "04", "geopoint": [40.833333, 14.25], "longitude": 14.25, "latitude": 40.833333, "accentcity": "Naples", "population": 981284}, "geometry": {"type": "Point", "coordinates": [14.25, 40.833333]}, "record_timestamp": "2018-01-08T12:47:45+01:00"},{"datasetid": "worldcitiespop", "recordid": "029ddae739baacf86521cea2f4bee4a56c8b7d03", "fields": {"city": "nardo", "country": "it", "region": "13", "geopoint": [40.183333, 18.033333], "longitude": 18.033333, "latitude": 40.183333, "accentcity": "Nard\u00f2", "population": 31294}, "geometry": {"type": "Point", "coordinates": [18.033333, 40.183333]}, "record_timestamp": "2018-01-08T12:47:45+01:00"},{"datasetid": "worldcitiespop", "recordid": "450880798fe4dc537a19f688ce67c5ba607a1f27", "fields": {"city": "pachino", "country": "it", "region": "15", "geopoint": [36.716667, 15.083333], "longitude": 15.083333, "latitude": 36.716667, "accentcity": "Pachino", "population": 22301}, "geometry": {"type": "Point", "coordinates": [15.083333, 36.716667]}, "record_timestamp": "2018-01-08T12:47:45+01:00"},{"datasetid": "worldcitiespop", "recordid": "1a6d27bf6862bfd68eb160b2ec6dfc453a102373", "fields": {"city": "palagiano", "country": "it", "region": "13", "geopoint": [40.578889, 17.038611], "longitude": 17.038611, "latitude": 40.578889, "accentcity": "Palagiano", "population": 16426}, "geometry": {"type": "Point", "coordinates": [17.038611, 40.578889]}, "record_timestamp": "2018-01-08T12:47:45+01:00"},{"datasetid": "worldcitiespop", "recordid": "9dc279f7327231ad1ba26217e8953398792b8f38", "fields": {"city": "cantu", "country": "it", "region": "09", "geopoint": [45.733333, 9.133333], "longitude": 9.133333, "latitude": 45.733333, "accentcity": "Cant\u00f9", "population": 36513}, "geometry": {"type": "Point", "coordinates": [9.133333, 45.733333]}, "record_timestamp": "2018-01-08T12:47:45+01:00"},{"datasetid": "worldcitiespop", "recordid": "a042b04764e8d3929b003a6690e2cf141869d7e1", "fields": {"city": "pordenone", "country": "it", "region": "06", "geopoint": [45.963889, 12.6575], "longitude": 12.6575, "latitude": 45.963889, "accentcity": "Pordenone", "population": 48581}, "geometry": {"type": "Point", "coordinates": [12.6575, 45.963889]}, "record_timestamp": "2018-01-08T12:47:45+01:00"},{"datasetid": "worldcitiespop", "recordid": "c38246896ea70f28ee13d7a6435255d949a93b88", "fields": {"city": "pozzallo", "country": "it", "region": "15", "geopoint": [36.716667, 14.85], "longitude": 14.85, "latitude": 36.716667, "accentcity": "Pozzallo", "population": 19030}, "geometry": {"type": "Point", "coordinates": [14.85, 36.716667]}, "record_timestamp": "2018-01-08T12:47:45+01:00"},{"datasetid": "worldcitiespop", "recordid": "7088b6a915764eeaff68dde286f6f8b929061792", "fields": {"city": "preganziol", "country": "it", "region": "20", "geopoint": [45.601389, 12.237222], "longitude": 12.237222, "latitude": 45.601389, "accentcity": "Preganziol", "population": 15877}, "geometry": {"type": "Point", "coordinates": [12.237222, 45.601389]}, "record_timestamp": "2018-01-08T12:47:45+01:00"},{"datasetid": "worldcitiespop", "recordid": "9ef5940ccb6ea74a21a13b3f4d0d56a7126a1fbd", "fields": {"city": "rivoli", "country": "it", "region": "12", "geopoint": [45.066667, 7.516667], "longitude": 7.516667, "latitude": 45.066667, "accentcity": "Rivoli", "population": 49959}, "geometry": {"type": "Point", "coordinates": [7.516667, 45.066667]}, "record_timestamp": "2018-01-08T12:47:45+01:00"},{"datasetid": "worldcitiespop", "recordid": "b5b8c68601386524ce8de43d4a75b318bea655a2", "fields": {"city": "rosarno", "country": "it", "region": "03", "geopoint": [38.483333, 15.966667], "longitude": 15.966667, "latitude": 38.483333, "accentcity": "Rosarno", "population": 15558}, "geometry": {"type": "Point", "coordinates": [15.966667, 38.483333]}, "record_timestamp": "2018-01-08T12:47:45+01:00"},{"datasetid": "worldcitiespop", "recordid": "b9a2d0729aeba80a16ec15db490d848aba6555e3", "fields": {"city": "gorssel", "country": "nl", "region": "03", "geopoint": [52.200531, 6.200275], "longitude": 6.200275, "latitude": 52.200531, "accentcity": "Gorssel", "population": 12824}, "geometry": {"type": "Point", "coordinates": [6.200275, 52.200531]}, "record_timestamp": "2018-01-08T12:47:45+01:00"},{"datasetid": "worldcitiespop", "recordid": "69b3003b5dbeec816022a12f6578a7d5c8bba1de", "fields": {"city": "gouda", "country": "nl", "region": "11", "geopoint": [52.022582, 4.707001], "longitude": 4.707001, "latitude": 52.022582, "accentcity": "Gouda", "population": 71684}, "geometry": {"type": "Point", "coordinates": [4.707001, 52.022582]}, "record_timestamp": "2018-01-08T12:47:45+01:00"},{"datasetid": "worldcitiespop", "recordid": "3a59369be34b48411f9da14cbd113493169339a6", "fields": {"city": "echt", "country": "nl", "region": "05", "geopoint": [51.112082, 5.870914], "longitude": 5.870914, "latitude": 51.112082, "accentcity": "Echt", "population": 19260}, "geometry": {"type": "Point", "coordinates": [5.870914, 51.112082]}, "record_timestamp": "2018-01-08T12:47:45+01:00"},{"datasetid": "worldcitiespop", "recordid": "2893def8fe304233337aafaee62f5f1f99e89c4e", "fields": {"city": "eersel", "country": "nl", "region": "06", "geopoint": [51.356604, 5.31992], "longitude": 5.31992, "latitude": 51.356604, "accentcity": "Eersel", "population": 18551}, "geometry": {"type": "Point", "coordinates": [5.31992, 51.356604]}, "record_timestamp": "2018-01-08T12:47:45+01:00"},{"datasetid": "worldcitiespop", "recordid": "5645a58d2fa024bd2f3ab127a096c8866658dd4f", "fields": {"city": "beverwijk", "country": "nl", "region": "07", "geopoint": [52.49126, 4.652082], "longitude": 4.652082, "latitude": 52.49126, "accentcity": "Beverwijk", "population": 36466}, "geometry": {"type": "Point", "coordinates": [4.652082, 52.49126]}, "record_timestamp": "2018-01-08T12:47:45+01:00"},{"datasetid": "worldcitiespop", "recordid": "3c313fae1a3cc57ea616f553fcd055817294ed8f", "fields": {"city": "borculo", "country": "nl", "region": "03", "geopoint": [52.116011, 6.520741], "longitude": 6.520741, "latitude": 52.116011, "accentcity": "Borculo", "population": 10551}, "geometry": {"type": "Point", "coordinates": [6.520741, 52.116011]}, "record_timestamp": "2018-01-08T12:47:45+01:00"},{"datasetid": "worldcitiespop", "recordid": "ad258184e2348264dbffae0f1a2142156fff3e14", "fields": {"city": "culemborg", "country": "nl", "region": "03", "geopoint": [51.951872, 5.231729], "longitude": 5.231729, "latitude": 51.951872, "accentcity": "Culemborg", "population": 27869}, "geometry": {"type": "Point", "coordinates": [5.231729, 51.951872]}, "record_timestamp": "2018-01-08T12:47:45+01:00"},{"datasetid": "worldcitiespop", "recordid": "b434e0bb8f31bee74a1340ee73bb67651327c649", "fields": {"city": "galati", "country": "ro", "region": "18", "geopoint": [45.45, 28.05], "longitude": 28.05, "latitude": 45.45, "accentcity": "Galati", "population": 294088}, "geometry": {"type": "Point", "coordinates": [28.05, 45.45]}, "record_timestamp": "2018-01-08T12:47:45+01:00"},{"datasetid": "worldcitiespop", "recordid": "410832d689780dca385f82fc53eeb94dc4a4b0b9", "fields": {"city": "ianca", "country": "ro", "region": "08", "geopoint": [45.133333, 27.45], "longitude": 27.45, "latitude": 45.133333, "accentcity": "Ianca", "population": 11209}, "geometry": {"type": "Point", "coordinates": [27.45, 45.133333]}, "record_timestamp": "2018-01-08T12:47:45+01:00"},{"datasetid": "worldcitiespop", "recordid": "d79264dae9d4dd2a58acf085289cbab5e465e3e8", "fields": {"city": "fetesti", "country": "ro", "region": "14", "geopoint": [44.383333, 27.833333], "longitude": 27.833333, "latitude": 44.383333, "accentcity": "Fetesti", "population": 32867}, "geometry": {"type": "Point", "coordinates": [27.833333, 44.383333]}, "record_timestamp": "2018-01-08T12:47:45+01:00"},{"datasetid": "worldcitiespop", "recordid": "504bf61d6da63ca04e97ea21ae7f096419d69972", "fields": {"city": "lesosibirsk", "country": "ru", "region": "39", "geopoint": [58.235833, 92.482778], "longitude": 92.482778, "latitude": 58.235833, "accentcity": "Lesosibirsk", "population": 65946}, "geometry": {"type": "Point", "coordinates": [92.482778, 58.235833]}, "record_timestamp": "2018-01-08T12:47:45+01:00"},{"datasetid": "worldcitiespop", "recordid": "9979224f7fa728d6c3f5d5d6c8d04d48a292e187", "fields": {"city": "kudymkar", "country": "ru", "region": "90", "geopoint": [59.01729, 54.655995], "longitude": 54.655995, "latitude": 59.01729, "accentcity": "Kudymkar", "population": 31597}, "geometry": {"type": "Point", "coordinates": [54.655995, 59.01729]}, "record_timestamp": "2018-01-08T12:47:45+01:00"},{"datasetid": "worldcitiespop", "recordid": "07c4fcc078176d9cac39a5ff090b16cab18229e3", "fields": {"city": "kyzyl", "country": "ru", "region": "79", "geopoint": [51.7, 94.45], "longitude": 94.45, "latitude": 51.7, "accentcity": "Kyzyl", "population": 108241}, "geometry": {"type": "Point", "coordinates": [94.45, 51.7]}, "record_timestamp": "2018-01-08T12:47:45+01:00"},{"datasetid": "worldcitiespop", "recordid": "f3711ea183f458a4b76480243579cf8cabcbaec5", "fields": {"city": "troy", "country": "us", "region": "MI", "geopoint": [42.6055556, -83.15], "longitude": -83.15, "latitude": 42.6055556, "accentcity": "Troy", "population": 81269}, "geometry": {"type": "Point", "coordinates": [-83.15, 42.6055556]}, "record_timestamp": "2018-01-08T12:47:45+01:00"},{"datasetid": "worldcitiespop", "recordid": "286cee0cb4dd4c5a9e4459a03f628d8cac4bfa8f", "fields": {"city": "dragasani", "country": "ro", "region": "29", "geopoint": [44.65, 24.266667], "longitude": 24.266667, "latitude": 44.65, "accentcity": "Dragasani", "population": 20630}, "geometry": {"type": "Point", "coordinates": [24.266667, 44.65]}, "record_timestamp": "2018-01-08T12:47:45+01:00"},{"datasetid": "worldcitiespop", "recordid": "0147409a6c8dfb8bd45ee851db1e3d5ed3120c4c", "fields": {"city": "wlodawa", "country": "pl", "region": "75", "geopoint": [51.55, 23.55], "longitude": 23.55, "latitude": 51.55, "accentcity": "Wlodawa", "population": 13142}, "geometry": {"type": "Point", "coordinates": [23.55, 51.55]}, "record_timestamp": "2018-01-08T12:47:45+01:00"},{"datasetid": "worldcitiespop", "recordid": "a0947fdf41cf4501dd79c9f002d9146edb7fa041", "fields": {"city": "odorheiu secuiesc", "country": "ro", "region": "20", "geopoint": [46.3, 25.3], "longitude": 25.3, "latitude": 46.3, "accentcity": "Odorheiu Secuiesc", "population": 36531}, "geometry": {"type": "Point", "coordinates": [25.3, 46.3]}, "record_timestamp": "2018-01-08T12:47:45+01:00"},{"datasetid": "worldcitiespop", "recordid": "ce4e76d4e0d8868751ba04d33a71773f5dd56129", "fields": {"city": "rovinari", "country": "ro", "region": "19", "geopoint": [44.916667, 23.183333], "longitude": 23.183333, "latitude": 44.916667, "accentcity": "Rovinari", "population": 12259}, "geometry": {"type": "Point", "coordinates": [23.183333, 44.916667]}, "record_timestamp": "2018-01-08T12:47:45+01:00"},{"datasetid": "worldcitiespop", "recordid": "d3db56fbc97e52165b67e725ff3abfca70a11552", "fields": {"city": "aksehir", "country": "tr", "region": "71", "geopoint": [38.3575, 31.416389], "longitude": 31.416389, "latitude": 38.3575, "accentcity": "Aksehir", "population": 64478}, "geometry": {"type": "Point", "coordinates": [31.416389, 38.3575]}, "record_timestamp": "2018-01-08T12:47:45+01:00"},{"datasetid": "worldcitiespop", "recordid": "f2cb1bfc2b79f5b1d5d3edffcb47b042aeae8825", "fields": {"city": "ankara", "country": "tr", "region": "68", "geopoint": [39.911652, 32.840305], "longitude": 32.840305, "latitude": 39.911652, "accentcity": "Ankara", "population": 3519177}, "geometry": {"type": "Point", "coordinates": [32.840305, 39.911652]}, "record_timestamp": "2018-01-08T12:47:45+01:00"},{"datasetid": "worldcitiespop", "recordid": "8a162b403a8136eadeac537d03be569999b3a0c9", "fields": {"city": "brockton", "country": "us", "region": "MA", "geopoint": [42.0833333, -71.0188889], "longitude": -71.0188889, "latitude": 42.0833333, "accentcity": "Brockton", "population": 94881}, "geometry": {"type": "Point", "coordinates": [-71.0188889, 42.0833333]}, "record_timestamp": "2018-01-08T12:47:45+01:00"},{"datasetid": "worldcitiespop", "recordid": "301907adbfaf1751c99839baaaf66ddfc16f52e7", "fields": {"city": "cambridge", "country": "us", "region": "MA", "geopoint": [42.375, -71.1061111], "longitude": -71.1061111, "latitude": 42.375, "accentcity": "Cambridge", "population": 101382}, "geometry": {"type": "Point", "coordinates": [-71.1061111, 42.375]}, "record_timestamp": "2018-01-08T12:47:45+01:00"},{"datasetid": "worldcitiespop", "recordid": "981a9f874c6ba0c0caa419161815154814d8be31", "fields": {"city": "dearborn", "country": "us", "region": "MI", "geopoint": [42.3222222, -83.1763889], "longitude": -83.1763889, "latitude": 42.3222222, "accentcity": "Dearborn", "population": 95170}, "geometry": {"type": "Point", "coordinates": [-83.1763889, 42.3222222]}, "record_timestamp": "2018-01-08T12:47:45+01:00"},{"datasetid": "worldcitiespop", "recordid": "22cddae0a81cdc8d24063cf8ba8345b1ae0a871e", "fields": {"city": "silver spring", "country": "us", "region": "MD", "geopoint": [38.9905556, -77.0263889], "longitude": -77.0263889, "latitude": 38.9905556, "accentcity": "Silver Spring", "population": 77951}, "geometry": {"type": "Point", "coordinates": [-77.0263889, 38.9905556]}, "record_timestamp": "2018-01-08T12:47:45+01:00"},{"datasetid": "worldcitiespop", "recordid": "261de0370288c67a16808c926bf2e3d915062a96", "fields": {"city": "oia", "country": "pt", "region": "02", "geopoint": [40.542641, -8.538562], "longitude": -8.538562, "latitude": 40.542641, "accentcity": "Oi\u00e3", "population": 7118}, "geometry": {"type": "Point", "coordinates": [-8.538562, 40.542641]}, "record_timestamp": "2018-01-08T12:47:45+01:00"},{"datasetid": "worldcitiespop", "recordid": "38e41328f9ad42033aef9ec6b4becfd7f5f39b5a", "fields": {"city": "oliveira", "country": "pt", "region": "04", "geopoint": [41.406479, -8.402734], "longitude": -8.402734, "latitude": 41.406479, "accentcity": "Oliveira", "population": 6222}, "geometry": {"type": "Point", "coordinates": [-8.402734, 41.406479]}, "record_timestamp": "2018-01-08T12:47:45+01:00"},{"datasetid": "worldcitiespop", "recordid": "a4dcdb39be51c8500e2df646a52d23e358200b41", "fields": {"city": "porto", "country": "pt", "region": "17", "geopoint": [41.149606, -8.610993], "longitude": -8.610993, "latitude": 41.149606, "accentcity": "Porto", "population": 249630}, "geometry": {"type": "Point", "coordinates": [-8.610993, 41.149606]}, "record_timestamp": "2018-01-08T12:47:45+01:00"},{"datasetid": "worldcitiespop", "recordid": "dc43f3df84d6002ac8b8135ffe8da35e5fae958a", "fields": {"city": "pulawy", "country": "pl", "region": "75", "geopoint": [51.416667, 21.966667], "longitude": 21.966667, "latitude": 51.416667, "accentcity": "Pulawy", "population": 49759}, "geometry": {"type": "Point", "coordinates": [21.966667, 51.416667]}, "record_timestamp": "2018-01-08T12:47:45+01:00"},{"datasetid": "worldcitiespop", "recordid": "29807c7bd9c798c690a75d13e999b417d9b96c1b", "fields": {"city": "istra", "country": "ru", "region": "47", "geopoint": [55.91997, 36.868667], "longitude": 36.868667, "latitude": 55.91997, "accentcity": "Istra", "population": 33391}, "geometry": {"type": "Point", "coordinates": [36.868667, 55.91997]}, "record_timestamp": "2018-01-08T12:47:45+01:00"},{"datasetid": "worldcitiespop", "recordid": "2c18af1d2f0af9afd120c97360bd053a63953136", "fields": {"city": "gorodets", "country": "ru", "region": "51", "geopoint": [56.654932, 43.472726], "longitude": 43.472726, "latitude": 56.654932, "accentcity": "Gorodets", "population": 31789}, "geometry": {"type": "Point", "coordinates": [43.472726, 56.654932]}, "record_timestamp": "2018-01-08T12:47:45+01:00"},{"datasetid": "worldcitiespop", "recordid": "6ce933ffd44b7c1a15893a4e74e8ef3b984be817", "fields": {"city": "samandag", "country": "tr", "region": "31", "geopoint": [36.084187, 35.977139], "longitude": 35.977139, "latitude": 36.084187, "accentcity": "Samandag", "population": 38434}, "geometry": {"type": "Point", "coordinates": [35.977139, 36.084187]}, "record_timestamp": "2018-01-08T12:47:45+01:00"},{"datasetid": "worldcitiespop", "recordid": "8c0fd0aa9f1978558218d98dc892d45a06fa0bf9", "fields": {"city": "patnos", "country": "tr", "region": "04", "geopoint": [39.233614, 42.863436], "longitude": 42.863436, "latitude": 39.233614, "accentcity": "Patnos", "population": 87490}, "geometry": {"type": "Point", "coordinates": [42.863436, 39.233614]}, "record_timestamp": "2018-01-08T12:47:45+01:00"},{"datasetid": "worldcitiespop", "recordid": "3b4f2c66daec3de757461c37c56e6ab1d4636911", "fields": {"city": "ontario", "country": "us", "region": "CA", "geopoint": [34.0633333, -117.65], "longitude": -117.65, "latitude": 34.0633333, "accentcity": "Ontario", "population": 172808}, "geometry": {"type": "Point", "coordinates": [-117.65, 34.0633333]}, "record_timestamp": "2018-01-08T12:47:45+01:00"},{"datasetid": "worldcitiespop", "recordid": "184c444ae0bd3bd32a827c09192a626beaa45321", "fields": {"city": "ustron", "country": "pl", "region": "83", "geopoint": [49.721526, 18.801983], "longitude": 18.801983, "latitude": 49.721526, "accentcity": "Ustron", "population": 15637}, "geometry": {"type": "Point", "coordinates": [18.801983, 49.721526]}, "record_timestamp": "2018-01-08T12:47:45+01:00"},{"datasetid": "worldcitiespop", "recordid": "8530d66e3e34072066c1b15d0a8d1caa0ad982d3", "fields": {"city": "wabrzezno", "country": "pl", "region": "73", "geopoint": [53.280183, 18.948288], "longitude": 18.948288, "latitude": 53.280183, "accentcity": "Wabrzezno", "population": 13911}, "geometry": {"type": "Point", "coordinates": [18.948288, 53.280183]}, "record_timestamp": "2018-01-08T12:47:45+01:00"},{"datasetid": "worldcitiespop", "recordid": "5cec7933f6479f401268dfef0350bffbe6d95bd6", "fields": {"city": "strzelce opolskie", "country": "pl", "region": "79", "geopoint": [50.513404, 18.305401], "longitude": 18.305401, "latitude": 50.513404, "accentcity": "Strzelce Opolskie", "population": 20241}, "geometry": {"type": "Point", "coordinates": [18.305401, 50.513404]}, "record_timestamp": "2018-01-08T12:47:45+01:00"},{"datasetid": "worldcitiespop", "recordid": "31b38a2b32cdec94f0d9a835884a1679fdcf3208", "fields": {"city": "elektrostal", "country": "ru", "region": "47", "geopoint": [55.789593, 38.446711], "longitude": 38.446711, "latitude": 55.789593, "accentcity": "Elektrostal", "population": 144389}, "geometry": {"type": "Point", "coordinates": [38.446711, 55.789593]}, "record_timestamp": "2018-01-08T12:47:45+01:00"},{"datasetid": "worldcitiespop", "recordid": "ae2f31d6e7db66479908e6dff82b572f6e647dcb", "fields": {"city": "glazov", "country": "ru", "region": "80", "geopoint": [58.139411, 52.658419], "longitude": 52.658419, "latitude": 58.139411, "accentcity": "Glazov", "population": 100677}, "geometry": {"type": "Point", "coordinates": [52.658419, 58.139411]}, "record_timestamp": "2018-01-08T12:47:45+01:00"},{"datasetid": "worldcitiespop", "recordid": "3338a5643d1177223992048d171a8d6208901b9a", "fields": {"city": "yuksekova", "country": "tr", "region": "70", "geopoint": [37.313813, 44.166061], "longitude": 44.166061, "latitude": 37.313813, "accentcity": "Y\u00fcksekova", "population": 71763}, "geometry": {"type": "Point", "coordinates": [44.166061, 37.313813]}, "record_timestamp": "2018-01-08T12:47:45+01:00"},{"datasetid": "worldcitiespop", "recordid": "d23b9adf5b1b000225484f9fce7a46b888d84cf3", "fields": {"city": "balashov", "country": "ru", "region": "67", "geopoint": [51.5502, 43.1667], "longitude": 43.1667, "latitude": 51.5502, "accentcity": "Balashov", "population": 98108}, "geometry": {"type": "Point", "coordinates": [43.1667, 51.5502]}, "record_timestamp": "2018-01-08T12:47:45+01:00"},{"datasetid": "worldcitiespop", "recordid": "50337f0239669c92f36beffabb89ca214ac6d126", "fields": {"city": "bogorodsk", "country": "ru", "region": "51", "geopoint": [56.105135, 43.512939], "longitude": 43.512939, "latitude": 56.105135, "accentcity": "Bogorodsk", "population": 36652}, "geometry": {"type": "Point", "coordinates": [43.512939, 56.105135]}, "record_timestamp": "2018-01-08T12:47:45+01:00"},{"datasetid": "worldcitiespop", "recordid": "bc63bae2a82c9cda3790655acd77aecfc80505e2", "fields": {"city": "maykop", "country": "ru", "region": "01", "geopoint": [44.607778, 40.105833], "longitude": 40.105833, "latitude": 44.607778, "accentcity": "Maykop", "population": 158453}, "geometry": {"type": "Point", "coordinates": [40.105833, 44.607778]}, "record_timestamp": "2018-01-08T12:47:45+01:00"},{"datasetid": "worldcitiespop", "recordid": "4f1399536fd3a15d952c589e396af58b215ccfe2", "fields": {"city": "nefteyugansk", "country": "ru", "region": "32", "geopoint": [61.083333, 72.7], "longitude": 72.7, "latitude": 61.083333, "accentcity": "Nefteyugansk", "population": 112634}, "geometry": {"type": "Point", "coordinates": [72.7, 61.083333]}, "record_timestamp": "2018-01-08T12:47:45+01:00"},{"datasetid": "worldcitiespop", "recordid": "5ce97b363c0e2d1dfd1cefc742dc21de82e2aa51", "fields": {"city": "mozdok", "country": "ru", "region": "68", "geopoint": [43.743593, 44.651769], "longitude": 44.651769, "latitude": 43.743593, "accentcity": "Mozdok", "population": 43779}, "geometry": {"type": "Point", "coordinates": [44.651769, 43.743593]}, "record_timestamp": "2018-01-08T12:47:45+01:00"},{"datasetid": "worldcitiespop", "recordid": "1ded81e0f0a30d8ea9720a6bbd7ef6a646f43008", "fields": {"city": "ust-kut", "country": "ru", "region": "20", "geopoint": [56.7938, 105.7672], "longitude": 105.7672, "latitude": 56.7938, "accentcity": "Ust-Kut", "population": 48203}, "geometry": {"type": "Point", "coordinates": [105.7672, 56.7938]}, "record_timestamp": "2018-01-08T12:47:45+01:00"},{"datasetid": "worldcitiespop", "recordid": "921efa945e3e7141ec65cce0014d5b46c832c992", "fields": {"city": "volgodonsk", "country": "ru", "region": "61", "geopoint": [47.5026, 42.235], "longitude": 42.235, "latitude": 47.5026, "accentcity": "Volgodonsk", "population": 167734}, "geometry": {"type": "Point", "coordinates": [42.235, 47.5026]}, "record_timestamp": "2018-01-08T12:47:45+01:00"},{"datasetid": "worldcitiespop", "recordid": "806416da8a50f900e70dd778cc8cff0a8a60d944", "fields": {"city": "bloomington", "country": "us", "region": "IN", "geopoint": [39.1652778, -86.5263889], "longitude": -86.5263889, "latitude": 39.1652778, "accentcity": "Bloomington", "population": 71253}, "geometry": {"type": "Point", "coordinates": [-86.5263889, 39.1652778]}, "record_timestamp": "2018-01-08T12:47:45+01:00"},{"datasetid": "worldcitiespop", "recordid": "341326c2c0244ba6d693259de777e97a4966ac5e", "fields": {"city": "champaign", "country": "us", "region": "IL", "geopoint": [40.1163889, -88.2433333], "longitude": -88.2433333, "latitude": 40.1163889, "accentcity": "Champaign", "population": 75670}, "geometry": {"type": "Point", "coordinates": [-88.2433333, 40.1163889]}, "record_timestamp": "2018-01-08T12:47:45+01:00"},{"datasetid": "worldcitiespop", "recordid": "5f0d914d6802bfc27cd9311205ca50e124db10f0", "fields": {"city": "columbia", "country": "us", "region": "SC", "geopoint": [34.0005556, -81.035], "longitude": -81.035, "latitude": 34.0005556, "accentcity": "Columbia", "population": 117722}, "geometry": {"type": "Point", "coordinates": [-81.035, 34.0005556]}, "record_timestamp": "2018-01-08T12:47:45+01:00"},{"datasetid": "worldcitiespop", "recordid": "0ea4b6f9c2331c71d34ad2795e4c8c8840322f2f", "fields": {"city": "killeen", "country": "us", "region": "TX", "geopoint": [31.1169444, -97.7275], "longitude": -97.7275, "latitude": 31.1169444, "accentcity": "Killeen", "population": 103009}, "geometry": {"type": "Point", "coordinates": [-97.7275, 31.1169444]}, "record_timestamp": "2018-01-08T12:47:45+01:00"},{"datasetid": "worldcitiespop", "recordid": "9249903c39937ffcf2e9a614bc271af3056356d2", "fields": {"city": "corpus christi", "country": "us", "region": "TX", "geopoint": [27.8002778, -97.3961111], "longitude": -97.3961111, "latitude": 27.8002778, "accentcity": "Corpus Christi", "population": 280382}, "geometry": {"type": "Point", "coordinates": [-97.3961111, 27.8002778]}, "record_timestamp": "2018-01-08T12:47:45+01:00"},{"datasetid": "worldcitiespop", "recordid": "89f5256f514517d6ce8a8de599d50fcf1da20189", "fields": {"city": "kostroma", "country": "ru", "region": "37", "geopoint": [57.766468, 40.926864], "longitude": 40.926864, "latitude": 57.766468, "accentcity": "Kostroma", "population": 277658}, "geometry": {"type": "Point", "coordinates": [40.926864, 57.766468]}, "record_timestamp": "2018-01-08T12:47:45+01:00"},{"datasetid": "worldcitiespop", "recordid": "b7d2941d7d8864d2c9b6629be925b479aca71d39", "fields": {"city": "rezh", "country": "ru", "region": "71", "geopoint": [57.3174, 61.3355], "longitude": 61.3355, "latitude": 57.3174, "accentcity": "Rezh", "population": 39217}, "geometry": {"type": "Point", "coordinates": [61.3355, 57.3174]}, "record_timestamp": "2018-01-08T12:47:45+01:00"},{"datasetid": "worldcitiespop", "recordid": "9e9b0b867eff2144221b103cbc6e50d1df148ac0", "fields": {"city": "rostov-na-donu", "country": "ru", "region": "61", "geopoint": [47.23135, 39.723284], "longitude": 39.723284, "latitude": 47.23135, "accentcity": "Rostov-na-Donu", "population": 1074495}, "geometry": {"type": "Point", "coordinates": [39.723284, 47.23135]}, "record_timestamp": "2018-01-08T12:47:45+01:00"},{"datasetid": "worldcitiespop", "recordid": "d8b484a91883c5994d8531b398be4a864399662e", "fields": {"city": "sayanogorsk", "country": "ru", "region": "31", "geopoint": [53.0875, 91.399722], "longitude": 91.399722, "latitude": 53.0875, "accentcity": "Sayanogorsk", "population": 49940}, "geometry": {"type": "Point", "coordinates": [91.399722, 53.0875]}, "record_timestamp": "2018-01-08T12:47:45+01:00"},{"datasetid": "worldcitiespop", "recordid": "58dbacd4b8f536374cb76c68608e942d2e24783d", "fields": {"city": "irvine", "country": "us", "region": "CA", "geopoint": [33.6694444, -117.8222222], "longitude": -117.8222222, "latitude": 33.6694444, "accentcity": "Irvine", "population": 189297}, "geometry": {"type": "Point", "coordinates": [-117.8222222, 33.6694444]}, "record_timestamp": "2018-01-08T12:47:45+01:00"},{"datasetid": "worldcitiespop", "recordid": "92a16c1f4fe65ac02a3c779ffa403cf7dfb9c475", "fields": {"city": "long beach", "country": "us", "region": "CA", "geopoint": [33.7669444, -118.1883333], "longitude": -118.1883333, "latitude": 33.7669444, "accentcity": "Long Beach", "population": 482618}, "geometry": {"type": "Point", "coordinates": [-118.1883333, 33.7669444]}, "record_timestamp": "2018-01-08T12:47:45+01:00"},{"datasetid": "worldcitiespop", "recordid": "7b5c577452491a1362e05eddcd7c5ae4e9e8d852", "fields": {"city": "mission viejo", "country": "us", "region": "CA", "geopoint": [33.6, -117.6711111], "longitude": -117.6711111, "latitude": 33.6, "accentcity": "Mission Viejo", "population": 96287}, "geometry": {"type": "Point", "coordinates": [-117.6711111, 33.6]}, "record_timestamp": "2018-01-08T12:47:45+01:00"},{"datasetid": "worldcitiespop", "recordid": "0740d9230ae1cf68f5a3e1381a41f5c500f7d2f9", "fields": {"city": "sugar land", "country": "us", "region": "TX", "geopoint": [29.6194444, -95.6347222], "longitude": -95.6347222, "latitude": 29.6194444, "accentcity": "Sugar Land", "population": 75777}, "geometry": {"type": "Point", "coordinates": [-95.6347222, 29.6194444]}, "record_timestamp": "2018-01-08T12:47:45+01:00"},{"datasetid": "worldcitiespop", "recordid": "b2d9e0a9ead1604684430b31e9525f8fdb3e3c18", "fields": {"city": "almetyevsk", "country": "ru", "region": "73", "geopoint": [54.904424, 52.315397], "longitude": 52.315397, "latitude": 54.904424, "accentcity": "Almetyevsk", "population": 142727}, "geometry": {"type": "Point", "coordinates": [52.315397, 54.904424]}, "record_timestamp": "2018-01-08T12:47:45+01:00"},{"datasetid": "worldcitiespop", "recordid": "80cb22a6edcff8d095a9064418586bc96308192b", "fields": {"city": "aksay", "country": "ru", "region": "61", "geopoint": [47.258381, 39.866746], "longitude": 39.866746, "latitude": 47.258381, "accentcity": "Aksay", "population": 38871}, "geometry": {"type": "Point", "coordinates": [39.866746, 47.258381]}, "record_timestamp": "2018-01-08T12:47:45+01:00"},{"datasetid": "worldcitiespop", "recordid": "5569720969e7ee3ea87879fa87cee16750e36afd", "fields": {"city": "arkhangelsk", "country": "ru", "region": "06", "geopoint": [64.5401, 40.5433], "longitude": 40.5433, "latitude": 64.5401, "accentcity": "Arkhangelsk", "population": 344603}, "geometry": {"type": "Point", "coordinates": [40.5433, 64.5401]}, "record_timestamp": "2018-01-08T12:47:45+01:00"},{"datasetid": "worldcitiespop", "recordid": "ae3dfdf92662c4d3dbf4144c1361a164e793dc09", "fields": {"city": "lyubertsy", "country": "ru", "region": "47", "geopoint": [55.677193, 37.893217], "longitude": 37.893217, "latitude": 55.677193, "accentcity": "Lyubertsy", "population": 154653}, "geometry": {"type": "Point", "coordinates": [37.893217, 55.677193]}, "record_timestamp": "2018-01-08T12:47:45+01:00"},{"datasetid": "worldcitiespop", "recordid": "b60c0bc0257ede8be022b035fa5d4e0c3c1f4104", "fields": {"city": "eregli", "country": "tr", "region": "85", "geopoint": [41.282615, 31.418056], "longitude": 31.418056, "latitude": 41.282615, "accentcity": "Eregli", "population": 88894}, "geometry": {"type": "Point", "coordinates": [31.418056, 41.282615]}, "record_timestamp": "2018-01-08T12:47:45+01:00"},{"datasetid": "worldcitiespop", "recordid": "cab67f295ee72bcc430f73c62b3b4fde882d8dfc", "fields": {"city": "bethlehem", "country": "us", "region": "PA", "geopoint": [40.6258333, -75.3708333], "longitude": -75.3708333, "latitude": 40.6258333, "accentcity": "Bethlehem", "population": 73710}, "geometry": {"type": "Point", "coordinates": [-75.3708333, 40.6258333]}, "record_timestamp": "2018-01-08T12:47:45+01:00"},{"datasetid": "worldcitiespop", "recordid": "e270e6299937d5454d36ad74e2e13895338eec6f", "fields": {"city": "kozuchow", "country": "pl", "region": "76", "geopoint": [51.745394, 15.594384], "longitude": 15.594384, "latitude": 51.745394, "accentcity": "Kozuchow", "population": 9679}, "geometry": {"type": "Point", "coordinates": [15.594384, 51.745394]}, "record_timestamp": "2018-01-08T12:47:45+01:00"},{"datasetid": "worldcitiespop", "recordid": "c64e22b305f25d87a8598121d6b3823588245e4d", "fields": {"city": "celaliye", "country": "tr", "region": "34", "geopoint": [41.045682, 28.432325], "longitude": 28.432325, "latitude": 41.045682, "accentcity": "Cel\u00e2liye", "population": 7793}, "geometry": {"type": "Point", "coordinates": [28.432325, 41.045682]}, "record_timestamp": "2018-01-08T12:47:45+01:00"},{"datasetid": "worldcitiespop", "recordid": "c9ebc7a1e21f3f545dc24dc1b2b3287d8b38fac2", "fields": {"city": "newton", "country": "us", "region": "MA", "geopoint": [42.3369444, -71.2097222], "longitude": -71.2097222, "latitude": 42.3369444, "accentcity": "Newton", "population": 84851}, "geometry": {"type": "Point", "coordinates": [-71.2097222, 42.3369444]}, "record_timestamp": "2018-01-08T12:47:45+01:00"},{"datasetid": "worldcitiespop", "recordid": "476a1cfa85457edd19f85d4a8ba5c411089f8368", "fields": {"city": "pawtucket", "country": "us", "region": "RI", "geopoint": [41.8786111, -71.3830556], "longitude": -71.3830556, "latitude": 41.8786111, "accentcity": "Pawtucket", "population": 74965}, "geometry": {"type": "Point", "coordinates": [-71.3830556, 41.8786111]}, "record_timestamp": "2018-01-08T12:47:45+01:00"},{"datasetid": "worldcitiespop", "recordid": "15672d358f38490754a2267223bb9516db52a614", "fields": {"city": "brownsville", "country": "us", "region": "TX", "geopoint": [25.9013889, -97.4972222], "longitude": -97.4972222, "latitude": 25.9013889, "accentcity": "Brownsville", "population": 168015}, "geometry": {"type": "Point", "coordinates": [-97.4972222, 25.9013889]}, "record_timestamp": "2018-01-08T12:47:45+01:00"},{"datasetid": "worldcitiespop", "recordid": "fce27291b7e274447b8d532c332b437442cd7e4c", "fields": {"city": "karakose", "country": "tr", "region": "04", "geopoint": [39.719444, 43.051389], "longitude": 43.051389, "latitude": 39.719444, "accentcity": "Karak\u00f6se", "population": 92069}, "geometry": {"type": "Point", "coordinates": [43.051389, 39.719444]}, "record_timestamp": "2018-01-08T12:47:45+01:00"},{"datasetid": "worldcitiespop", "recordid": "d1fd9a71aeea7da248692a84e4e155b19bbd4b13", "fields": {"city": "kastamonu", "country": "tr", "region": "37", "geopoint": [41.378052, 33.775275], "longitude": 33.775275, "latitude": 41.378052, "accentcity": "Kastamonu", "population": 70438}, "geometry": {"type": "Point", "coordinates": [33.775275, 41.378052]}, "record_timestamp": "2018-01-08T12:47:45+01:00"},{"datasetid": "worldcitiespop", "recordid": "a5d4ed2b77b640960c31bb82a72bb9ecdce41a6f", "fields": {"city": "mut", "country": "tr", "region": "32", "geopoint": [36.643887, 33.438847], "longitude": 33.438847, "latitude": 36.643887, "accentcity": "Mut", "population": 49423}, "geometry": {"type": "Point", "coordinates": [33.438847, 36.643887]}, "record_timestamp": "2018-01-08T12:47:45+01:00"},{"datasetid": "worldcitiespop", "recordid": "a558ac015be058e053b1d6e0ea286dd0e7d99152", "fields": {"city": "fort wayne", "country": "us", "region": "IN", "geopoint": [41.1305556, -85.1288889], "longitude": -85.1288889, "latitude": 41.1305556, "accentcity": "Fort Wayne", "population": 229715}, "geometry": {"type": "Point", "coordinates": [-85.1288889, 41.1305556]}, "record_timestamp": "2018-01-08T12:47:45+01:00"},{"datasetid": "worldcitiespop", "recordid": "0721eca2e7d30554773ecc6e9b45135e58875ad1", "fields": {"city": "syracuse", "country": "us", "region": "NY", "geopoint": [43.0480556, -76.1477778], "longitude": -76.1477778, "latitude": 43.0480556, "accentcity": "Syracuse", "population": 141830}, "geometry": {"type": "Point", "coordinates": [-76.1477778, 43.0480556]}, "record_timestamp": "2018-01-08T12:47:45+01:00"},{"datasetid": "worldcitiespop", "recordid": "0f55d48f4e97a4fea4eb1bcc10ee80faef330d8a", "fields": {"city": "yonkers", "country": "us", "region": "NY", "geopoint": [40.9311111, -73.8991667], "longitude": -73.8991667, "latitude": 40.9311111, "accentcity": "Yonkers", "population": 197818}, "geometry": {"type": "Point", "coordinates": [-73.8991667, 40.9311111]}, "record_timestamp": "2018-01-08T12:47:45+01:00"},{"datasetid": "worldcitiespop", "recordid": "35ae5662bf50a105990c161bff6d6e0c809f7590", "fields": {"city": "izmir", "country": "tr", "region": "35", "geopoint": [38.412726, 27.138376], "longitude": 27.138376, "latitude": 38.412726, "accentcity": "Izmir", "population": 2501895}, "geometry": {"type": "Point", "coordinates": [27.138376, 38.412726]}, "record_timestamp": "2018-01-08T12:47:45+01:00"},{"datasetid": "worldcitiespop", "recordid": "f79ab82cefc905ca5284e65cd16b912b2c8f4f1a", "fields": {"city": "inegol", "country": "tr", "region": "16", "geopoint": [40.078056, 29.513333], "longitude": 29.513333, "latitude": 40.078056, "accentcity": "Inegol", "population": 134030}, "geometry": {"type": "Point", "coordinates": [29.513333, 40.078056]}, "record_timestamp": "2018-01-08T12:47:45+01:00"},{"datasetid": "worldcitiespop", "recordid": "e6cc32edc4e29b175df964ae5133c0ac17d85cc0", "fields": {"city": "islahiye", "country": "tr", "region": "83", "geopoint": [37.025, 36.630556], "longitude": 36.630556, "latitude": 37.025, "accentcity": "Islahiye", "population": 40783}, "geometry": {"type": "Point", "coordinates": [36.630556, 37.025]}, "record_timestamp": "2018-01-08T12:47:45+01:00"},{"datasetid": "worldcitiespop", "recordid": "21045c88bb224af88ef67dfe8b14aee0d71cccb8", "fields": {"city": "kestel", "country": "tr", "region": "16", "geopoint": [40.198283, 29.212369], "longitude": 29.212369, "latitude": 40.198283, "accentcity": "Kestel", "population": 36204}, "geometry": {"type": "Point", "coordinates": [29.212369, 40.198283]}, "record_timestamp": "2018-01-08T12:47:45+01:00"},{"datasetid": "worldcitiespop", "recordid": "7913e6700fac45f7b0bdfc3d6212046761f8a0bf", "fields": {"city": "torrance", "country": "us", "region": "CA", "geopoint": [33.8358333, -118.3397222], "longitude": -118.3397222, "latitude": 33.8358333, "accentcity": "Torrance", "population": 144963}, "geometry": {"type": "Point", "coordinates": [-118.3397222, 33.8358333]}, "record_timestamp": "2018-01-08T12:47:45+01:00"},{"datasetid": "worldcitiespop", "recordid": "9a0638de32d9c82c1e9d015fcc88540c96370a8a", "fields": {"city": "pueblo", "country": "us", "region": "CO", "geopoint": [38.2544444, -104.6086111], "longitude": -104.6086111, "latitude": 38.2544444, "accentcity": "Pueblo", "population": 104293}, "geometry": {"type": "Point", "coordinates": [-104.6086111, 38.2544444]}, "record_timestamp": "2018-01-08T12:47:45+01:00"},{"datasetid": "worldcitiespop", "recordid": "cbe2f75f0024bb96c162ac03f4378a7753a1ebdf", "fields": {"city": "west covina", "country": "us", "region": "CA", "geopoint": [34.0686111, -117.9380556], "longitude": -117.9380556, "latitude": 34.0686111, "accentcity": "West Covina", "population": 109756}, "geometry": {"type": "Point", "coordinates": [-117.9380556, 34.0686111]}, "record_timestamp": "2018-01-08T12:47:45+01:00"},{"datasetid": "worldcitiespop", "recordid": "421a8092830ebef3564bbff19b1f58cbd3ef7e38", "fields": {"city": "norman", "country": "us", "region": "OK", "geopoint": [35.2225, -97.4391667], "longitude": -97.4391667, "latitude": 35.2225, "accentcity": "Norman", "population": 101742}, "geometry": {"type": "Point", "coordinates": [-97.4391667, 35.2225]}, "record_timestamp": "2018-01-08T12:47:45+01:00"},{"datasetid": "worldcitiespop", "recordid": "2d4b135ae3e96fbcdb89c1b16ff37975e3d55a29", "fields": {"city": "edremit", "country": "tr", "region": "10", "geopoint": [39.596111, 27.024444], "longitude": 27.024444, "latitude": 39.596111, "accentcity": "Edremit", "population": 40797}, "geometry": {"type": "Point", "coordinates": [27.024444, 39.596111]}, "record_timestamp": "2018-01-08T12:47:45+01:00"},{"datasetid": "worldcitiespop", "recordid": "732f9aa5137c969500459ba1c16671fcf12d5604", "fields": {"city": "erzincan", "country": "tr", "region": "24", "geopoint": [39.752222, 39.492778], "longitude": 39.492778, "latitude": 39.752222, "accentcity": "Erzincan", "population": 114087}, "geometry": {"type": "Point", "coordinates": [39.492778, 39.752222]}, "record_timestamp": "2018-01-08T12:47:45+01:00"},{"datasetid": "worldcitiespop", "recordid": "b1e5694189b492fcd7121d29cec58c94d34dae07", "fields": {"city": "anchorage", "country": "us", "region": "AK", "geopoint": [61.2180556, -149.9002778], "longitude": -149.9002778, "latitude": 61.2180556, "accentcity": "Anchorage", "population": 276263}, "geometry": {"type": "Point", "coordinates": [-149.9002778, 61.2180556]}, "record_timestamp": "2018-01-08T12:47:45+01:00"},{"datasetid": "worldcitiespop", "recordid": "b01d53cb239c5aabc89e440c721fa7188ce1eaaa", "fields": {"city": "little rock", "country": "us", "region": "AR", "geopoint": [34.7463889, -92.2894444], "longitude": -92.2894444, "latitude": 34.7463889, "accentcity": "Little Rock", "population": 184217}, "geometry": {"type": "Point", "coordinates": [-92.2894444, 34.7463889]}, "record_timestamp": "2018-01-08T12:47:45+01:00"},{"datasetid": "worldcitiespop", "recordid": "a9d7927c6a222d07158420c6a410bebc3374e46c", "fields": {"city": "bellevue", "country": "us", "region": "WA", "geopoint": [47.6105556, -122.1994444], "longitude": -122.1994444, "latitude": 47.6105556, "accentcity": "Bellevue", "population": 111927}, "geometry": {"type": "Point", "coordinates": [-122.1994444, 47.6105556]}, "record_timestamp": "2018-01-08T12:47:45+01:00"},{"datasetid": "worldcitiespop", "recordid": "bee35f534ed6883c3b6d25ec91f2a099ce5cbeaf", "fields": {"city": "madison", "country": "us", "region": "WI", "geopoint": [43.0730556, -89.4011111], "longitude": -89.4011111, "latitude": 43.0730556, "accentcity": "Madison", "population": 224625}, "geometry": {"type": "Point", "coordinates": [-89.4011111, 43.0730556]}, "record_timestamp": "2018-01-08T12:47:45+01:00"},{"datasetid": "worldcitiespop", "recordid": "ed305bc170be4afc3ef85781b5e975e1b986220b", "fields": {"city": "kenosha", "country": "us", "region": "WI", "geopoint": [42.5847222, -87.8211111], "longitude": -87.8211111, "latitude": 42.5847222, "accentcity": "Kenosha", "population": 93982}, "geometry": {"type": "Point", "coordinates": [-87.8211111, 42.5847222]}, "record_timestamp": "2018-01-08T12:47:45+01:00"},{"datasetid": "worldcitiespop", "recordid": "e13e627b7febc70e7d7b8d4ab0ee9643dc6b5fc8", "fields": {"city": "siirt", "country": "tr", "region": "74", "geopoint": [37.932624, 41.940247], "longitude": 41.940247, "latitude": 37.932624, "accentcity": "Siirt", "population": 114094}, "geometry": {"type": "Point", "coordinates": [41.940247, 37.932624]}, "record_timestamp": "2018-01-08T12:47:45+01:00"},{"datasetid": "worldcitiespop", "recordid": "20c21bf725102ef92799659980ab2e5540cde6f9", "fields": {"city": "silifke", "country": "tr", "region": "32", "geopoint": [36.377778, 33.934444], "longitude": 33.934444, "latitude": 36.377778, "accentcity": "Silifke", "population": 75353}, "geometry": {"type": "Point", "coordinates": [33.934444, 36.377778]}, "record_timestamp": "2018-01-08T12:47:45+01:00"},{"datasetid": "worldcitiespop", "recordid": "73422a83e984896fbb27ce80b18a5754a93450a0", "fields": {"city": "selimpasa", "country": "tr", "region": "34", "geopoint": [41.055838, 28.378949], "longitude": 28.378949, "latitude": 41.055838, "accentcity": "Selimpasa", "population": 10569}, "geometry": {"type": "Point", "coordinates": [28.378949, 41.055838]}, "record_timestamp": "2018-01-08T12:47:45+01:00"},{"datasetid": "worldcitiespop", "recordid": "26db4a41cb0f5f2a833a4019a030ea2522155d1e", "fields": {"city": "tarsus", "country": "tr", "region": "32", "geopoint": [36.91876, 34.878404], "longitude": 34.878404, "latitude": 36.91876, "accentcity": "Tarsus", "population": 256617}, "geometry": {"type": "Point", "coordinates": [34.878404, 36.91876]}, "record_timestamp": "2018-01-08T12:47:45+01:00"},{"datasetid": "worldcitiespop", "recordid": "d0f74ae9545369555e1e42dbe907665b28a422d5", "fields": {"city": "allentown", "country": "us", "region": "PA", "geopoint": [40.6083333, -75.4905556], "longitude": -75.4905556, "latitude": 40.6083333, "accentcity": "Allentown", "population": 105519}, "geometry": {"type": "Point", "coordinates": [-75.4905556, 40.6083333]}, "record_timestamp": "2018-01-08T12:47:45+01:00"},{"datasetid": "worldcitiespop", "recordid": "e2f594bc82995986ddc49f505e157ad00c865d50", "fields": {"city": "kladno", "country": "cz", "region": "88", "geopoint": [50.142037, 14.096549], "longitude": 14.096549, "latitude": 50.142037, "accentcity": "Kladno", "population": 71262}, "geometry": {"type": "Point", "coordinates": [14.096549, 50.142037]}, "record_timestamp": "2018-01-08T12:47:45+01:00"},{"datasetid": "worldcitiespop", "recordid": "d5255c8dcbf8b0ee0331a7af6bfc69ad4370ad45", "fields": {"city": "celakovice", "country": "cz", "region": "88", "geopoint": [50.163545, 14.755924], "longitude": 14.755924, "latitude": 50.163545, "accentcity": "Celakovice", "population": 10086}, "geometry": {"type": "Point", "coordinates": [14.755924, 50.163545]}, "record_timestamp": "2018-01-08T12:47:45+01:00"},{"datasetid": "worldcitiespop", "recordid": "2243afd1ce1e9db2c82958881ee352c1fb238bd7", "fields": {"city": "habay", "country": "be", "region": "06", "geopoint": [49.733333, 5.616667], "longitude": 5.616667, "latitude": 49.733333, "accentcity": "Habay", "population": 7704}, "geometry": {"type": "Point", "coordinates": [5.616667, 49.733333]}, "record_timestamp": "2018-01-08T12:47:45+01:00"},{"datasetid": "worldcitiespop", "recordid": "c11a49115143e609446a40ebc6faa3eed94fa329", "fields": {"city": "machelen", "country": "be", "region": "02", "geopoint": [50.916667, 4.433333], "longitude": 4.433333, "latitude": 50.916667, "accentcity": "Machelen", "population": 12252}, "geometry": {"type": "Point", "coordinates": [4.433333, 50.916667]}, "record_timestamp": "2018-01-08T12:47:45+01:00"},{"datasetid": "worldcitiespop", "recordid": "27094ab09ec1799d09728496526729c236493b08", "fields": {"city": "brugelette", "country": "be", "region": "03", "geopoint": [50.6, 3.85], "longitude": 3.85, "latitude": 50.6, "accentcity": "Brugelette", "population": 3358}, "geometry": {"type": "Point", "coordinates": [3.85, 50.6]}, "record_timestamp": "2018-01-08T12:47:45+01:00"},{"datasetid": "worldcitiespop", "recordid": "3ec72fd1eee8e6669e6e2245b3701b59beb59690", "fields": {"city": "enghien", "country": "be", "region": "03", "geopoint": [50.7, 4.033333], "longitude": 4.033333, "latitude": 50.7, "accentcity": "Enghien", "population": 11367}, "geometry": {"type": "Point", "coordinates": [4.033333, 50.7]}, "record_timestamp": "2018-01-08T12:47:45+01:00"},{"datasetid": "worldcitiespop", "recordid": "cd7fc359e81fa5e2d5155d018cf5455f064e276b", "fields": {"city": "bievre", "country": "be", "region": "07", "geopoint": [49.933333, 5.016667], "longitude": 5.016667, "latitude": 49.933333, "accentcity": "Bi\u00e8vre", "population": 3207}, "geometry": {"type": "Point", "coordinates": [5.016667, 49.933333]}, "record_timestamp": "2018-01-08T12:47:45+01:00"},{"datasetid": "worldcitiespop", "recordid": "62a0c8cea555f4a837a159ce1121b1d2a5f0ac9f", "fields": {"city": "bocholt", "country": "be", "region": "05", "geopoint": [51.166667, 5.583333], "longitude": 5.583333, "latitude": 51.166667, "accentcity": "Bocholt", "population": 12346}, "geometry": {"type": "Point", "coordinates": [5.583333, 51.166667]}, "record_timestamp": "2018-01-08T12:47:45+01:00"},{"datasetid": "worldcitiespop", "recordid": "30e1cf5eb18b8c9ab8b081a35d10e0e1e0e6287e", "fields": {"city": "bouillon", "country": "be", "region": "06", "geopoint": [49.8, 5.066667], "longitude": 5.066667, "latitude": 49.8, "accentcity": "Bouillon", "population": 5347}, "geometry": {"type": "Point", "coordinates": [5.066667, 49.8]}, "record_timestamp": "2018-01-08T12:47:45+01:00"},{"datasetid": "worldcitiespop", "recordid": "83df4884232537bc06cf77fe7bbb0fb3cd135a16", "fields": {"city": "kaprijke", "country": "be", "region": "08", "geopoint": [51.216667, 3.6], "longitude": 3.6, "latitude": 51.216667, "accentcity": "Kaprijke", "population": 6114}, "geometry": {"type": "Point", "coordinates": [3.6, 51.216667]}, "record_timestamp": "2018-01-08T12:47:45+01:00"},{"datasetid": "worldcitiespop", "recordid": "53305b7c3adbe55461abb91985b80cafb90d4e5d", "fields": {"city": "kortenaken", "country": "be", "region": "02", "geopoint": [50.916667, 5.066667], "longitude": 5.066667, "latitude": 50.916667, "accentcity": "Kortenaken", "population": 7374}, "geometry": {"type": "Point", "coordinates": [5.066667, 50.916667]}, "record_timestamp": "2018-01-08T12:47:45+01:00"},{"datasetid": "worldcitiespop", "recordid": "880d4e436cfff3c6654424d2f43791c2554136a0", "fields": {"city": "kraainem", "country": "be", "region": "02", "geopoint": [50.866667, 4.466667], "longitude": 4.466667, "latitude": 50.866667, "accentcity": "Kraainem", "population": 12815}, "geometry": {"type": "Point", "coordinates": [4.466667, 50.866667]}, "record_timestamp": "2018-01-08T12:47:45+01:00"},{"datasetid": "worldcitiespop", "recordid": "e0dc3bb5b35c48dd10775a4a80288dc240b52ad8", "fields": {"city": "fleron", "country": "be", "region": "04", "geopoint": [50.616667, 5.683333], "longitude": 5.683333, "latitude": 50.616667, "accentcity": "Fl\u00e9ron", "population": 15994}, "geometry": {"type": "Point", "coordinates": [5.683333, 50.616667]}, "record_timestamp": "2018-01-08T12:47:45+01:00"},{"datasetid": "worldcitiespop", "recordid": "3eeb204b7e952c758de41d3fb458ccfd7e479cc0", "fields": {"city": "geetbets", "country": "be", "region": "02", "geopoint": [50.883333, 5.116667], "longitude": 5.116667, "latitude": 50.883333, "accentcity": "Geetbets", "population": 5813}, "geometry": {"type": "Point", "coordinates": [5.116667, 50.883333]}, "record_timestamp": "2018-01-08T12:47:45+01:00"},{"datasetid": "worldcitiespop", "recordid": "8a2f6f428c0dc82bc02ff4e7889f87d1516e9de6", "fields": {"city": "geraardsbergen", "country": "be", "region": "08", "geopoint": [50.766667, 3.866667], "longitude": 3.866667, "latitude": 50.766667, "accentcity": "Geraardsbergen", "population": 30807}, "geometry": {"type": "Point", "coordinates": [3.866667, 50.766667]}, "record_timestamp": "2018-01-08T12:47:45+01:00"},{"datasetid": "worldcitiespop", "recordid": "cc8f8d39fde04f382c03ce85612d044e607b8ffb", "fields": {"city": "bechyne", "country": "cz", "region": "79", "geopoint": [49.299118, 14.469875], "longitude": 14.469875, "latitude": 49.299118, "accentcity": "Bechyne", "population": 5900}, "geometry": {"type": "Point", "coordinates": [14.469875, 49.299118]}, "record_timestamp": "2018-01-08T12:47:45+01:00"},{"datasetid": "worldcitiespop", "recordid": "eda479f79dd756021e7946303b384ff5676f2eee", "fields": {"city": "windisch", "country": "ch", "region": "01", "geopoint": [47.476756, 8.220846], "longitude": 8.220846, "latitude": 47.476756, "accentcity": "Windisch", "population": 6815}, "geometry": {"type": "Point", "coordinates": [8.220846, 47.476756]}, "record_timestamp": "2018-01-08T12:47:45+01:00"},{"datasetid": "worldcitiespop", "recordid": "c8e7b2d74fbe58d3bc922148c1a94b0f9eca0d71", "fields": {"city": "affoltern", "country": "ch", "region": "01", "geopoint": [47.281224, 8.45346], "longitude": 8.45346, "latitude": 47.281224, "accentcity": "Affoltern", "population": 10415}, "geometry": {"type": "Point", "coordinates": [8.45346, 47.281224]}, "record_timestamp": "2018-01-08T12:47:45+01:00"},{"datasetid": "worldcitiespop", "recordid": "a9072c3c92e29551f43e19c0e786673f895c8549", "fields": {"city": "appenzell", "country": "ch", "region": "10", "geopoint": [47.328914, 9.410547], "longitude": 9.410547, "latitude": 47.328914, "accentcity": "Appenzell", "population": 5541}, "geometry": {"type": "Point", "coordinates": [9.410547, 47.328914]}, "record_timestamp": "2018-01-08T12:47:45+01:00"},{"datasetid": "worldcitiespop", "recordid": "8fab5ad61319a89ba20dfaaac4a238c4ba25a06d", "fields": {"city": "carouge", "country": "ch", "region": "07", "geopoint": [46.186153, 6.13463], "longitude": 6.13463, "latitude": 46.186153, "accentcity": "Carouge", "population": 19688}, "geometry": {"type": "Point", "coordinates": [6.13463, 46.186153]}, "record_timestamp": "2018-01-08T12:47:45+01:00"},{"datasetid": "worldcitiespop", "recordid": "83b4eacfa861d3101ad425003ce49f600105263d", "fields": {"city": "dudingen", "country": "ch", "region": "06", "geopoint": [46.849152, 7.188475], "longitude": 7.188475, "latitude": 46.849152, "accentcity": "Dudingen", "population": 7088}, "geometry": {"type": "Point", "coordinates": [7.188475, 46.849152]}, "record_timestamp": "2018-01-08T12:47:45+01:00"},{"datasetid": "worldcitiespop", "recordid": "37848e0d9881dab2a2f61a0dafa4dffd36759e91", "fields": {"city": "langenthal", "country": "ch", "region": "01", "geopoint": [47.21526, 7.796072], "longitude": 7.796072, "latitude": 47.21526, "accentcity": "Langenthal", "population": 14533}, "geometry": {"type": "Point", "coordinates": [7.796072, 47.21526]}, "record_timestamp": "2018-01-08T12:47:45+01:00"},{"datasetid": "worldcitiespop", "recordid": "72209349afa5d97726dc876f06b3a800de5dd9f9", "fields": {"city": "le grand-saconnex", "country": "ch", "region": "07", "geopoint": [46.226419, 6.123303], "longitude": 6.123303, "latitude": 46.226419, "accentcity": "Le Grand-Saconnex", "population": 8457}, "geometry": {"type": "Point", "coordinates": [6.123303, 46.226419]}, "record_timestamp": "2018-01-08T12:47:45+01:00"},{"datasetid": "worldcitiespop", "recordid": "54f1ba4bb41d041552c0fff972087a9ede3d741f", "fields": {"city": "losone", "country": "ch", "region": "20", "geopoint": [46.133333, 8.75], "longitude": 8.75, "latitude": 46.133333, "accentcity": "Losone", "population": 6060}, "geometry": {"type": "Point", "coordinates": [8.75, 46.133333]}, "record_timestamp": "2018-01-08T12:47:45+01:00"},{"datasetid": "worldcitiespop", "recordid": "deb8603c0160e97ae5a505762870c4e53e3fcd71", "fields": {"city": "meyrin", "country": "ch", "region": "07", "geopoint": [46.228245, 6.064189], "longitude": 6.064189, "latitude": 46.228245, "accentcity": "Meyrin", "population": 19691}, "geometry": {"type": "Point", "coordinates": [6.064189, 46.228245]}, "record_timestamp": "2018-01-08T12:47:45+01:00"},{"datasetid": "worldcitiespop", "recordid": "93d3edf2bba97550167cf6cef87897a993335d4d", "fields": {"city": "olten", "country": "ch", "region": "01", "geopoint": [47.357058, 7.909101], "longitude": 7.909101, "latitude": 47.357058, "accentcity": "Olten", "population": 16555}, "geometry": {"type": "Point", "coordinates": [7.909101, 47.357058]}, "record_timestamp": "2018-01-08T12:47:45+01:00"},{"datasetid": "worldcitiespop", "recordid": "beb08d8c3bdea29b25e06e7e24df955d6f82ec8f", "fields": {"city": "pfaffikon", "country": "ch", "region": "25", "geopoint": [47.364528, 8.78395], "longitude": 8.78395, "latitude": 47.364528, "accentcity": "Pfaffikon", "population": 9987}, "geometry": {"type": "Point", "coordinates": [8.78395, 47.364528]}, "record_timestamp": "2018-01-08T12:47:45+01:00"},{"datasetid": "worldcitiespop", "recordid": "3aa9e13320835093de3d9786ea3de5451f761ff3", "fields": {"city": "westerstede", "country": "de", "region": "06", "geopoint": [53.25, 7.933333], "longitude": 7.933333, "latitude": 53.25, "accentcity": "Westerstede", "population": 22209}, "geometry": {"type": "Point", "coordinates": [7.933333, 53.25]}, "record_timestamp": "2018-01-08T12:47:45+01:00"},{"datasetid": "worldcitiespop", "recordid": "c4c8cbf109449905676036910ce5576fc969221c", "fields": {"city": "weiterstadt", "country": "de", "region": "05", "geopoint": [49.907778, 8.595278], "longitude": 8.595278, "latitude": 49.907778, "accentcity": "Weiterstadt", "population": 24499}, "geometry": {"type": "Point", "coordinates": [8.595278, 49.907778]}, "record_timestamp": "2018-01-08T12:47:45+01:00"},{"datasetid": "worldcitiespop", "recordid": "0516028673ce8d61261dd000713447cfde027508", "fields": {"city": "lubbenau", "country": "de", "region": "11", "geopoint": [51.866667, 13.966667], "longitude": 13.966667, "latitude": 51.866667, "accentcity": "L\u00fcbbenau", "population": 21356}, "geometry": {"type": "Point", "coordinates": [13.966667, 51.866667]}, "record_timestamp": "2018-01-08T12:47:45+01:00"},{"datasetid": "worldcitiespop", "recordid": "ef318b92b3174892fcc65d85057a3e1f629cc89b", "fields": {"city": "marburg", "country": "de", "region": "05", "geopoint": [50.816667, 8.766667], "longitude": 8.766667, "latitude": 50.816667, "accentcity": "Marburg", "population": 79300}, "geometry": {"type": "Point", "coordinates": [8.766667, 50.816667]}, "record_timestamp": "2018-01-08T12:47:45+01:00"},{"datasetid": "worldcitiespop", "recordid": "88f744979c5d2367ec34b951ce782f5fe534f1fb", "fields": {"city": "muhlhausen", "country": "de", "region": "15", "geopoint": [51.216667, 10.45], "longitude": 10.45, "latitude": 51.216667, "accentcity": "M\u00fchlhausen", "population": 36287}, "geometry": {"type": "Point", "coordinates": [10.45, 51.216667]}, "record_timestamp": "2018-01-08T12:47:45+01:00"},{"datasetid": "worldcitiespop", "recordid": "d1c4fc8dac6d573ad56b54ee221a506dc33ac854", "fields": {"city": "munster", "country": "de", "region": "07", "geopoint": [51.966667, 7.633333], "longitude": 7.633333, "latitude": 51.966667, "accentcity": "M\u00fcnster", "population": 272452}, "geometry": {"type": "Point", "coordinates": [7.633333, 51.966667]}, "record_timestamp": "2018-01-08T12:47:45+01:00"},{"datasetid": "worldcitiespop", "recordid": "f2ed1ce5882c812833478a59d8d214868dfb3ad4", "fields": {"city": "lichtenfels", "country": "de", "region": "02", "geopoint": [50.15, 11.066667], "longitude": 11.066667, "latitude": 50.15, "accentcity": "Lichtenfels", "population": 21586}, "geometry": {"type": "Point", "coordinates": [11.066667, 50.15]}, "record_timestamp": "2018-01-08T12:47:45+01:00"},{"datasetid": "worldcitiespop", "recordid": "774ca244aad494664cd58291bf9aa453b76c566e", "fields": {"city": "olching", "country": "de", "region": "02", "geopoint": [48.2, 11.333333], "longitude": 11.333333, "latitude": 48.2, "accentcity": "Olching", "population": 24526}, "geometry": {"type": "Point", "coordinates": [11.333333, 48.2]}, "record_timestamp": "2018-01-08T12:47:45+01:00"},{"datasetid": "worldcitiespop", "recordid": "deb561317df0cda94bfea6dc5ca3de194d985cdd", "fields": {"city": "rotenburg", "country": "de", "region": "06", "geopoint": [53.116667, 9.4], "longitude": 9.4, "latitude": 53.116667, "accentcity": "Rotenburg", "population": 22108}, "geometry": {"type": "Point", "coordinates": [9.4, 53.116667]}, "record_timestamp": "2018-01-08T12:47:45+01:00"},{"datasetid": "worldcitiespop", "recordid": "1fa81343f4c684de46f1cc91deaedad9fd071f83", "fields": {"city": "rottenburg", "country": "de", "region": "01", "geopoint": [48.466667, 8.933333], "longitude": 8.933333, "latitude": 48.466667, "accentcity": "Rottenburg", "population": 43117}, "geometry": {"type": "Point", "coordinates": [8.933333, 48.466667]}, "record_timestamp": "2018-01-08T12:47:45+01:00"},{"datasetid": "worldcitiespop", "recordid": "6a79cbfdb4c127e9d533fa8ef7ca945aab6ef61a", "fields": {"city": "pirna", "country": "de", "region": "13", "geopoint": [50.966667, 13.933333], "longitude": 13.933333, "latitude": 50.966667, "accentcity": "Pirna", "population": 39701}, "geometry": {"type": "Point", "coordinates": [13.933333, 50.966667]}, "record_timestamp": "2018-01-08T12:47:45+01:00"},{"datasetid": "worldcitiespop", "recordid": "3aa0ee3fed55d9a1dd58cd607f73df1ed148df0d", "fields": {"city": "quickborn", "country": "de", "region": "10", "geopoint": [53.733333, 9.9], "longitude": 9.9, "latitude": 53.733333, "accentcity": "Quickborn", "population": 20281}, "geometry": {"type": "Point", "coordinates": [9.9, 53.733333]}, "record_timestamp": "2018-01-08T12:47:45+01:00"},{"datasetid": "worldcitiespop", "recordid": "58929cb0486e009e9114e1e2ab88e54b884dfc72", "fields": {"city": "ostfildern", "country": "de", "region": "01", "geopoint": [48.716667, 9.266667], "longitude": 9.266667, "latitude": 48.716667, "accentcity": "Ostfildern", "population": 34162}, "geometry": {"type": "Point", "coordinates": [9.266667, 48.716667]}, "record_timestamp": "2018-01-08T12:47:45+01:00"},{"datasetid": "worldcitiespop", "recordid": "5e4aeead02878bab218092d688df25099f522d44", "fields": {"city": "overath", "country": "de", "region": "07", "geopoint": [50.95, 7.3], "longitude": 7.3, "latitude": 50.95, "accentcity": "Overath", "population": 27073}, "geometry": {"type": "Point", "coordinates": [7.3, 50.95]}, "record_timestamp": "2018-01-08T12:47:45+01:00"},{"datasetid": "worldcitiespop", "recordid": "dee7b78209bd9ca2ab039d5b9fe2a825135c46bb", "fields": {"city": "weiz", "country": "at", "region": "06", "geopoint": [47.216667, 15.616667], "longitude": 15.616667, "latitude": 47.216667, "accentcity": "Weiz", "population": 9128}, "geometry": {"type": "Point", "coordinates": [15.616667, 47.216667]}, "record_timestamp": "2018-01-08T12:47:45+01:00"},{"datasetid": "worldcitiespop", "recordid": "4c1073300e6a170a5fc33a6debf37e801ff3f319", "fields": {"city": "wilhelmsburg", "country": "at", "region": "03", "geopoint": [48.1, 15.6], "longitude": 15.6, "latitude": 48.1, "accentcity": "Wilhelmsburg", "population": 6718}, "geometry": {"type": "Point", "coordinates": [15.6, 48.1]}, "record_timestamp": "2018-01-08T12:47:45+01:00"},{"datasetid": "worldcitiespop", "recordid": "66073c1febd0a85851340db7f90c25bb70561902", "fields": {"city": "zirl", "country": "at", "region": "07", "geopoint": [47.283333, 11.233333], "longitude": 11.233333, "latitude": 47.283333, "accentcity": "Zirl", "population": 6567}, "geometry": {"type": "Point", "coordinates": [11.233333, 47.283333]}, "record_timestamp": "2018-01-08T12:47:45+01:00"},{"datasetid": "worldcitiespop", "recordid": "978ad6673678a79d8d7b5bcc32d40128d9481ac3", "fields": {"city": "timelkam", "country": "at", "region": "04", "geopoint": [48.0, 13.6], "longitude": 13.6, "latitude": 48.0, "accentcity": "Timelkam", "population": 5855}, "geometry": {"type": "Point", "coordinates": [13.6, 48.0]}, "record_timestamp": "2018-01-08T12:47:45+01:00"},{"datasetid": "worldcitiespop", "recordid": "1ce12920e7289da2ac94da1e26d922c6306277e9", "fields": {"city": "traun", "country": "at", "region": "04", "geopoint": [48.216667, 14.233333], "longitude": 14.233333, "latitude": 48.216667, "accentcity": "Traun", "population": 23959}, "geometry": {"type": "Point", "coordinates": [14.233333, 48.216667]}, "record_timestamp": "2018-01-08T12:47:45+01:00"},{"datasetid": "worldcitiespop", "recordid": "53dc684c60f9266c7015b44f6ada3c2924fc435e", "fields": {"city": "stara zagora", "country": "bg", "region": "59", "geopoint": [42.4327778, 25.6419444], "longitude": 25.6419444, "latitude": 42.4327778, "accentcity": "Stara Zagora", "population": 137760}, "geometry": {"type": "Point", "coordinates": [25.6419444, 42.4327778]}, "record_timestamp": "2018-01-08T12:47:45+01:00"},{"datasetid": "worldcitiespop", "recordid": "ef8a387b4c0f97b95cf65257d1ff0cb6acdd1b33", "fields": {"city": "coesfeld", "country": "de", "region": "07", "geopoint": [51.933333, 7.15], "longitude": 7.15, "latitude": 51.933333, "accentcity": "Coesfeld", "population": 36929}, "geometry": {"type": "Point", "coordinates": [7.15, 51.933333]}, "record_timestamp": "2018-01-08T12:47:45+01:00"},{"datasetid": "worldcitiespop", "recordid": "e4eba7399f12aecf70b3664b5e9dfb9a633ea5ed", "fields": {"city": "emmerich", "country": "de", "region": "07", "geopoint": [51.833333, 6.25], "longitude": 6.25, "latitude": 51.833333, "accentcity": "Emmerich", "population": 29753}, "geometry": {"type": "Point", "coordinates": [6.25, 51.833333]}, "record_timestamp": "2018-01-08T12:47:45+01:00"},{"datasetid": "worldcitiespop", "recordid": "6b03db2e22eaf67a644ba5f79d4d63d335414421", "fields": {"city": "heinsberg", "country": "de", "region": "07", "geopoint": [51.066667, 6.083333], "longitude": 6.083333, "latitude": 51.066667, "accentcity": "Heinsberg", "population": 42409}, "geometry": {"type": "Point", "coordinates": [6.083333, 51.066667]}, "record_timestamp": "2018-01-08T12:47:45+01:00"},{"datasetid": "worldcitiespop", "recordid": "a702bb71bab3a15d403860b9ec026ff12f6300f7", "fields": {"city": "braunau", "country": "at", "region": "04", "geopoint": [48.266667, 13.033333], "longitude": 13.033333, "latitude": 48.266667, "accentcity": "Braunau", "population": 16403}, "geometry": {"type": "Point", "coordinates": [13.033333, 48.266667]}, "record_timestamp": "2018-01-08T12:47:45+01:00"},{"datasetid": "worldcitiespop", "recordid": "e783387143cb933dffee35416541bdc514777dc9", "fields": {"city": "jenbach", "country": "at", "region": "07", "geopoint": [47.4, 11.783333], "longitude": 11.783333, "latitude": 47.4, "accentcity": "Jenbach", "population": 6806}, "geometry": {"type": "Point", "coordinates": [11.783333, 47.4]}, "record_timestamp": "2018-01-08T12:47:45+01:00"},{"datasetid": "worldcitiespop", "recordid": "b2e1d68c288854301d2d1e1521683f10363c1771", "fields": {"city": "koflach", "country": "at", "region": "06", "geopoint": [47.066667, 15.083333], "longitude": 15.083333, "latitude": 47.066667, "accentcity": "Koflach", "population": 10447}, "geometry": {"type": "Point", "coordinates": [15.083333, 47.066667]}, "record_timestamp": "2018-01-08T12:47:45+01:00"},{"datasetid": "worldcitiespop", "recordid": "68e4c4d6428aa04760f6077707ad8943a935ea95", "fields": {"city": "kuchl", "country": "at", "region": "05", "geopoint": [47.616667, 13.15], "longitude": 13.15, "latitude": 47.616667, "accentcity": "Kuchl", "population": 6668}, "geometry": {"type": "Point", "coordinates": [13.15, 47.616667]}, "record_timestamp": "2018-01-08T12:47:45+01:00"},{"datasetid": "worldcitiespop", "recordid": "107832f4c40d764795dc75fa4d13a943e30cbc1f", "fields": {"city": "pasching", "country": "at", "region": "04", "geopoint": [48.25, 14.2], "longitude": 14.2, "latitude": 48.25, "accentcity": "Pasching", "population": 6143}, "geometry": {"type": "Point", "coordinates": [14.2, 48.25]}, "record_timestamp": "2018-01-08T12:47:45+01:00"},{"datasetid": "worldcitiespop", "recordid": "a8b080d71ef8b0704193248274fe376995675c24", "fields": {"city": "rixensart", "country": "be", "region": "02", "geopoint": [50.716667, 4.533333], "longitude": 4.533333, "latitude": 50.716667, "accentcity": "Rixensart", "population": 21616}, "geometry": {"type": "Point", "coordinates": [4.533333, 50.716667]}, "record_timestamp": "2018-01-08T12:47:45+01:00"},{"datasetid": "worldcitiespop", "recordid": "63c24d5bf6a3a8d7cec94f9698d9b0840125df82", "fields": {"city": "sainte-ode", "country": "be", "region": "06", "geopoint": [50.083333, 5.533333], "longitude": 5.533333, "latitude": 50.083333, "accentcity": "Sainte-Ode", "population": 2310}, "geometry": {"type": "Point", "coordinates": [5.533333, 50.083333]}, "record_timestamp": "2018-01-08T12:47:45+01:00"},{"datasetid": "worldcitiespop", "recordid": "c122dfd4ad1e1d37b8475c8c95b5d478ca0404ff", "fields": {"city": "nazareth", "country": "be", "region": "08", "geopoint": [50.966667, 3.6], "longitude": 3.6, "latitude": 50.966667, "accentcity": "Nazareth", "population": 10890}, "geometry": {"type": "Point", "coordinates": [3.6, 50.966667]}, "record_timestamp": "2018-01-08T12:47:45+01:00"},{"datasetid": "worldcitiespop", "recordid": "c0ee19fcc965e8b3dd1e165cdbc4a42df9ec961a", "fields": {"city": "zulte", "country": "be", "region": "08", "geopoint": [50.916667, 3.433333], "longitude": 3.433333, "latitude": 50.916667, "accentcity": "Zulte", "population": 14670}, "geometry": {"type": "Point", "coordinates": [3.433333, 50.916667]}, "record_timestamp": "2018-01-08T12:47:45+01:00"},{"datasetid": "worldcitiespop", "recordid": "141f1549126b80770f2237e8f1a1b9bdca278301", "fields": {"city": "velke mezirici", "country": "cz", "region": "80", "geopoint": [49.355442, 16.01449], "longitude": 16.01449, "latitude": 49.355442, "accentcity": "Velke Mezirici", "population": 11795}, "geometry": {"type": "Point", "coordinates": [16.01449, 49.355442]}, "record_timestamp": "2018-01-08T12:47:45+01:00"},{"datasetid": "worldcitiespop", "recordid": "1862bde12659e59b55c2a166edba8b1adb09a339", "fields": {"city": "sedlcany", "country": "cz", "region": "88", "geopoint": [49.65885, 14.423418], "longitude": 14.423418, "latitude": 49.65885, "accentcity": "Sedlcany", "population": 8088}, "geometry": {"type": "Point", "coordinates": [14.423418, 49.65885]}, "record_timestamp": "2018-01-08T12:47:45+01:00"},{"datasetid": "worldcitiespop", "recordid": "127bcdc40647b8300a9338a2e1b7363a16d0adc2", "fields": {"city": "bad homburg", "country": "de", "region": "05", "geopoint": [50.216667, 8.616667], "longitude": 8.616667, "latitude": 50.216667, "accentcity": "Bad Homburg", "population": 51923}, "geometry": {"type": "Point", "coordinates": [8.616667, 50.216667]}, "record_timestamp": "2018-01-08T12:47:45+01:00"},{"datasetid": "worldcitiespop", "recordid": "626b8a29d7fe260056653974a7afd6bce03a117c", "fields": {"city": "bad oldesloe", "country": "de", "region": "10", "geopoint": [53.816667, 10.383333], "longitude": 10.383333, "latitude": 53.816667, "accentcity": "Bad Oldesloe", "population": 23982}, "geometry": {"type": "Point", "coordinates": [10.383333, 53.816667]}, "record_timestamp": "2018-01-08T12:47:45+01:00"},{"datasetid": "worldcitiespop", "recordid": "8f33970fb61a33089f4b722ae44f610ef5d13322", "fields": {"city": "trebic", "country": "cz", "region": "80", "geopoint": [49.210649, 15.881458], "longitude": 15.881458, "latitude": 49.210649, "accentcity": "Trebic", "population": 39038}, "geometry": {"type": "Point", "coordinates": [15.881458, 49.210649]}, "record_timestamp": "2018-01-08T12:47:45+01:00"},{"datasetid": "worldcitiespop", "recordid": "af80651f106e77a9e1392b688d5262c720513528", "fields": {"city": "amersham", "country": "gb", "region": "B9", "geopoint": [51.666667, -0.616667], "longitude": -0.616667, "latitude": 51.666667, "accentcity": "Amersham", "population": 21731}, "geometry": {"type": "Point", "coordinates": [-0.616667, 51.666667]}, "record_timestamp": "2018-01-08T12:47:45+01:00"},{"datasetid": "worldcitiespop", "recordid": "e56ca0689e533306b15cedd5df34e37827b56c48", "fields": {"city": "stains", "country": "fr", "region": "A8", "geopoint": [48.95, 2.383333], "longitude": 2.383333, "latitude": 48.95, "accentcity": "Stains", "population": 31921}, "geometry": {"type": "Point", "coordinates": [2.383333, 48.95]}, "record_timestamp": "2018-01-08T12:47:45+01:00"},{"datasetid": "worldcitiespop", "recordid": "fe4eab419d9fa10a16e4220be5a3793dac2280bf", "fields": {"city": "bishop auckland", "country": "gb", "region": "D8", "geopoint": [54.65, -1.666667], "longitude": -1.666667, "latitude": 54.65, "accentcity": "Bishop Auckland", "population": 25665}, "geometry": {"type": "Point", "coordinates": [-1.666667, 54.65]}, "record_timestamp": "2018-01-08T12:47:45+01:00"},{"datasetid": "worldcitiespop", "recordid": "736705b9e583d985803f268091a9444e5642f335", "fields": {"city": "blyth", "country": "gb", "region": "J6", "geopoint": [55.120556, -1.514167], "longitude": -1.514167, "latitude": 55.120556, "accentcity": "Blyth", "population": 36356}, "geometry": {"type": "Point", "coordinates": [-1.514167, 55.120556]}, "record_timestamp": "2018-01-08T12:47:45+01:00"},{"datasetid": "worldcitiespop", "recordid": "1dffb4821e5e0fc85972dd5a1501f2b104600a7c", "fields": {"city": "broxburn", "country": "gb", "region": "W9", "geopoint": [55.933333, -3.466667], "longitude": -3.466667, "latitude": 55.933333, "accentcity": "Broxburn", "population": 13288}, "geometry": {"type": "Point", "coordinates": [-3.466667, 55.933333]}, "record_timestamp": "2018-01-08T12:47:45+01:00"},{"datasetid": "worldcitiespop", "recordid": "387142d7794c4c4203c0b3d541ee8b891ca3b97e", "fields": {"city": "grottaferrata", "country": "it", "region": "07", "geopoint": [41.783333, 12.666667], "longitude": 12.666667, "latitude": 41.783333, "accentcity": "Grottaferrata", "population": 19485}, "geometry": {"type": "Point", "coordinates": [12.666667, 41.783333]}, "record_timestamp": "2018-01-08T12:47:45+01:00"},{"datasetid": "worldcitiespop", "recordid": "4ef56dfdc9e4a1de80c0306ecf0e8d54e432a118", "fields": {"city": "imola", "country": "it", "region": "05", "geopoint": [44.35, 11.7], "longitude": 11.7, "latitude": 44.35, "accentcity": "Imola", "population": 66903}, "geometry": {"type": "Point", "coordinates": [11.7, 44.35]}, "record_timestamp": "2018-01-08T12:47:45+01:00"},{"datasetid": "worldcitiespop", "recordid": "6d053cee1af31dc9e4920e7ede9a24201e8acd79", "fields": {"city": "cattolica", "country": "it", "region": "05", "geopoint": [43.966667, 12.733333], "longitude": 12.733333, "latitude": 43.966667, "accentcity": "Cattolica", "population": 16157}, "geometry": {"type": "Point", "coordinates": [12.733333, 43.966667]}, "record_timestamp": "2018-01-08T12:47:45+01:00"},{"datasetid": "worldcitiespop", "recordid": "8905877e9d8a91665331973511f396d0929af4af", "fields": {"city": "cerignola", "country": "it", "region": "13", "geopoint": [41.266667, 15.9], "longitude": 15.9, "latitude": 41.266667, "accentcity": "Cerignola", "population": 58888}, "geometry": {"type": "Point", "coordinates": [15.9, 41.266667]}, "record_timestamp": "2018-01-08T12:47:45+01:00"},{"datasetid": "worldcitiespop", "recordid": "df5c51ae5b2a5438e55e3793857d73ee03d83283", "fields": {"city": "misilmeri", "country": "it", "region": "15", "geopoint": [38.033333, 13.45], "longitude": 13.45, "latitude": 38.033333, "accentcity": "Misilmeri", "population": 25692}, "geometry": {"type": "Point", "coordinates": [13.45, 38.033333]}, "record_timestamp": "2018-01-08T12:47:45+01:00"},{"datasetid": "worldcitiespop", "recordid": "4c0c1b8707cb3cc073be6c88cc54e5225c60ede5", "fields": {"city": "montecchio maggiore", "country": "it", "region": "20", "geopoint": [45.5, 11.4], "longitude": 11.4, "latitude": 45.5, "accentcity": "Montecchio Maggiore", "population": 21875}, "geometry": {"type": "Point", "coordinates": [11.4, 45.5]}, "record_timestamp": "2018-01-08T12:47:45+01:00"},{"datasetid": "worldcitiespop", "recordid": "0ecdec623ae7ef920ae654dc6b9cc784b169820a", "fields": {"city": "novate milanese", "country": "it", "region": "09", "geopoint": [45.533333, 9.133333], "longitude": 9.133333, "latitude": 45.533333, "accentcity": "Novate Milanese", "population": 20576}, "geometry": {"type": "Point", "coordinates": [9.133333, 45.533333]}, "record_timestamp": "2018-01-08T12:47:45+01:00"},{"datasetid": "worldcitiespop", "recordid": "a3a18de230b11b12f4f0abee7fe90d7dd1717cdb", "fields": {"city": "palagonia", "country": "it", "region": "15", "geopoint": [37.316667, 14.75], "longitude": 14.75, "latitude": 37.316667, "accentcity": "Palagonia", "population": 17745}, "geometry": {"type": "Point", "coordinates": [14.75, 37.316667]}, "record_timestamp": "2018-01-08T12:47:45+01:00"},{"datasetid": "worldcitiespop", "recordid": "dff9c0b55e6113df8723f5b2ad9351335d856ea1", "fields": {"city": "palermo", "country": "it", "region": "15", "geopoint": [38.116667, 13.366667], "longitude": 13.366667, "latitude": 38.116667, "accentcity": "Palermo", "population": 669582}, "geometry": {"type": "Point", "coordinates": [13.366667, 38.116667]}, "record_timestamp": "2018-01-08T12:47:45+01:00"},{"datasetid": "worldcitiespop", "recordid": "7c1943d55562c796d22358c45daeb2f002a35384", "fields": {"city": "potenza", "country": "it", "region": "02", "geopoint": [40.633333, 15.8], "longitude": 15.8, "latitude": 40.633333, "accentcity": "Potenza", "population": 68823}, "geometry": {"type": "Point", "coordinates": [15.8, 40.633333]}, "record_timestamp": "2018-01-08T12:47:45+01:00"},{"datasetid": "worldcitiespop", "recordid": "87c24cf0eae11d89720f4d71dfc31c767aaf6d10", "fields": {"city": "comiso", "country": "it", "region": "15", "geopoint": [36.933333, 14.6], "longitude": 14.6, "latitude": 36.933333, "accentcity": "Comiso", "population": 29575}, "geometry": {"type": "Point", "coordinates": [14.6, 36.933333]}, "record_timestamp": "2018-01-08T12:47:45+01:00"},{"datasetid": "worldcitiespop", "recordid": "07da77ef86e6f3e03e3269f40169eb545a5fa157", "fields": {"city": "corato", "country": "it", "region": "13", "geopoint": [41.15, 16.416667], "longitude": 16.416667, "latitude": 41.15, "accentcity": "Corato", "population": 45276}, "geometry": {"type": "Point", "coordinates": [16.416667, 41.15]}, "record_timestamp": "2018-01-08T12:47:45+01:00"},{"datasetid": "worldcitiespop", "recordid": "a1c3b017c55ddd9649cc335a28a5d28c84fa862d", "fields": {"city": "maglie", "country": "it", "region": "13", "geopoint": [40.116667, 18.3], "longitude": 18.3, "latitude": 40.116667, "accentcity": "Maglie", "population": 15295}, "geometry": {"type": "Point", "coordinates": [18.3, 40.116667]}, "record_timestamp": "2018-01-08T12:47:45+01:00"},{"datasetid": "worldcitiespop", "recordid": "1810dffc483812668b51c363ef7331767f15b04d", "fields": {"city": "mariano comense", "country": "it", "region": "09", "geopoint": [45.7, 9.183333], "longitude": 9.183333, "latitude": 45.7, "accentcity": "Mariano Comense", "population": 21877}, "geometry": {"type": "Point", "coordinates": [9.183333, 45.7]}, "record_timestamp": "2018-01-08T12:47:45+01:00"},{"datasetid": "worldcitiespop", "recordid": "4ef46de2e60716152061fff922cb2ce7af96ba96", "fields": {"city": "martellago", "country": "it", "region": "20", "geopoint": [45.5475, 12.15], "longitude": 12.15, "latitude": 45.5475, "accentcity": "Martellago", "population": 20335}, "geometry": {"type": "Point", "coordinates": [12.15, 45.5475]}, "record_timestamp": "2018-01-08T12:47:45+01:00"},{"datasetid": "worldcitiespop", "recordid": "c8d3402dd02ca21cd17fa7a88ab0829bfc1f0ed5", "fields": {"city": "desio", "country": "it", "region": "09", "geopoint": [45.616667, 9.216667], "longitude": 9.216667, "latitude": 45.616667, "accentcity": "Desio", "population": 36708}, "geometry": {"type": "Point", "coordinates": [9.216667, 45.616667]}, "record_timestamp": "2018-01-08T12:47:45+01:00"},{"datasetid": "worldcitiespop", "recordid": "a9ecbdce472cf63283e6b2aab79758e63887b258", "fields": {"city": "fabriano", "country": "it", "region": "10", "geopoint": [43.333333, 12.9], "longitude": 12.9, "latitude": 43.333333, "accentcity": "Fabriano", "population": 31087}, "geometry": {"type": "Point", "coordinates": [12.9, 43.333333]}, "record_timestamp": "2018-01-08T12:47:45+01:00"},{"datasetid": "worldcitiespop", "recordid": "2a232ff2efc18c84cac94a130eef18b7c60c3b65", "fields": {"city": "follonica", "country": "it", "region": "16", "geopoint": [42.916667, 10.75], "longitude": 10.75, "latitude": 42.916667, "accentcity": "Follonica", "population": 21460}, "geometry": {"type": "Point", "coordinates": [10.75, 42.916667]}, "record_timestamp": "2018-01-08T12:47:45+01:00"},{"datasetid": "worldcitiespop", "recordid": "83e0e1331f496c26089a21df4e756b9d6a630e91", "fields": {"city": "ruvo di puglia", "country": "it", "region": "13", "geopoint": [41.116667, 16.483333], "longitude": 16.483333, "latitude": 41.116667, "accentcity": "Ruvo di Puglia", "population": 26385}, "geometry": {"type": "Point", "coordinates": [16.483333, 41.116667]}, "record_timestamp": "2018-01-08T12:47:45+01:00"},{"datasetid": "worldcitiespop", "recordid": "d94846f8f40798b04da27dd111a764dff3fe673c", "fields": {"city": "vignola", "country": "it", "region": "05", "geopoint": [44.483333, 11.0], "longitude": 11.0, "latitude": 44.483333, "accentcity": "Vignola", "population": 22092}, "geometry": {"type": "Point", "coordinates": [11.0, 44.483333]}, "record_timestamp": "2018-01-08T12:47:45+01:00"},{"datasetid": "worldcitiespop", "recordid": "0b62a23f436c36bedf2c021c94ff70930c22c5c4", "fields": {"city": "seriate", "country": "it", "region": "09", "geopoint": [45.683333, 9.716667], "longitude": 9.716667, "latitude": 45.683333, "accentcity": "Seriate", "population": 21795}, "geometry": {"type": "Point", "coordinates": [9.716667, 45.683333]}, "record_timestamp": "2018-01-08T12:47:45+01:00"},{"datasetid": "worldcitiespop", "recordid": "bec6e5239bb47425880961a681aaae7e1eaeabd8", "fields": {"city": "somma vesuviana", "country": "it", "region": "04", "geopoint": [40.866667, 14.433333], "longitude": 14.433333, "latitude": 40.866667, "accentcity": "Somma Vesuviana", "population": 35196}, "geometry": {"type": "Point", "coordinates": [14.433333, 40.866667]}, "record_timestamp": "2018-01-08T12:47:45+01:00"},{"datasetid": "worldcitiespop", "recordid": "e63fc9dcc7b4891e3a6603f70862d7c5f98a002b", "fields": {"city": "termini imerese", "country": "it", "region": "15", "geopoint": [37.983333, 13.7], "longitude": 13.7, "latitude": 37.983333, "accentcity": "Termini Imerese", "population": 27632}, "geometry": {"type": "Point", "coordinates": [13.7, 37.983333]}, "record_timestamp": "2018-01-08T12:47:45+01:00"},{"datasetid": "worldcitiespop", "recordid": "2fd658c4b0ae4b2854763c590fdecee2c5cc6722", "fields": {"city": "avola", "country": "it", "region": "15", "geopoint": [36.9, 15.133333], "longitude": 15.133333, "latitude": 36.9, "accentcity": "Avola", "population": 32767}, "geometry": {"type": "Point", "coordinates": [15.133333, 36.9]}, "record_timestamp": "2018-01-08T12:47:45+01:00"},{"datasetid": "worldcitiespop", "recordid": "165e190ca1a9322f7371b136ebba9aa74184d02a", "fields": {"city": "bari", "country": "it", "region": "13", "geopoint": [41.133333, 16.85], "longitude": 16.85, "latitude": 41.133333, "accentcity": "Bari", "population": 303049}, "geometry": {"type": "Point", "coordinates": [16.85, 41.133333]}, "record_timestamp": "2018-01-08T12:47:45+01:00"},{"datasetid": "worldcitiespop", "recordid": "450ddc44c8e08abf172674f3602842d408a4f155", "fields": {"city": "poiana mare", "country": "ro", "region": "17", "geopoint": [43.916667, 23.066667], "longitude": 23.066667, "latitude": 43.916667, "accentcity": "Poiana Mare", "population": 12633}, "geometry": {"type": "Point", "coordinates": [23.066667, 43.916667]}, "record_timestamp": "2018-01-08T12:47:45+01:00"},{"datasetid": "worldcitiespop", "recordid": "c9cf2f98de6b98b0f2e650d4fd94f522edf39752", "fields": {"city": "holboca", "country": "ro", "region": "23", "geopoint": [47.15, 27.7], "longitude": 27.7, "latitude": 47.15, "accentcity": "Holboca", "population": 11708}, "geometry": {"type": "Point", "coordinates": [27.7, 47.15]}, "record_timestamp": "2018-01-08T12:47:45+01:00"},{"datasetid": "worldcitiespop", "recordid": "aa3740e9bf2f1b40e4861f389245f5e5b62bada8", "fields": {"city": "draganesti-olt", "country": "ro", "region": "42", "geopoint": [44.166667, 24.533333], "longitude": 24.533333, "latitude": 44.166667, "accentcity": "Draganesti-Olt", "population": 12057}, "geometry": {"type": "Point", "coordinates": [24.533333, 44.166667]}, "record_timestamp": "2018-01-08T12:47:45+01:00"},{"datasetid": "worldcitiespop", "recordid": "2bd4cdd7dbc42f1ca88f76f1d2caf7ef3efa8ec6", "fields": {"city": "covasna", "country": "ro", "region": "15", "geopoint": [45.85, 26.183333], "longitude": 26.183333, "latitude": 45.85, "accentcity": "Covasna", "population": 10979}, "geometry": {"type": "Point", "coordinates": [26.183333, 45.85]}, "record_timestamp": "2018-01-08T12:47:45+01:00"},{"datasetid": "worldcitiespop", "recordid": "b6a1bd416c8b07ca2dcee97c7d359347ea18e1cb", "fields": {"city": "deva", "country": "ro", "region": "21", "geopoint": [45.883333, 22.9], "longitude": 22.9, "latitude": 45.883333, "accentcity": "Deva", "population": 67802}, "geometry": {"type": "Point", "coordinates": [22.9, 45.883333]}, "record_timestamp": "2018-01-08T12:47:45+01:00"},{"datasetid": "worldcitiespop", "recordid": "de6438dfdcb9719410d0ee81c8a5c2430e624776", "fields": {"city": "caransebes", "country": "ro", "region": "12", "geopoint": [45.416667, 22.216667], "longitude": 22.216667, "latitude": 45.416667, "accentcity": "Caransebes", "population": 27521}, "geometry": {"type": "Point", "coordinates": [22.216667, 45.416667]}, "record_timestamp": "2018-01-08T12:47:45+01:00"},{"datasetid": "worldcitiespop", "recordid": "0ede9f92694510e5b0b033481cf951cf1f1ea7fc", "fields": {"city": "debica", "country": "pl", "region": "80", "geopoint": [50.052379, 21.414763], "longitude": 21.414763, "latitude": 50.052379, "accentcity": "Debica", "population": 47366}, "geometry": {"type": "Point", "coordinates": [21.414763, 50.052379]}, "record_timestamp": "2018-01-08T12:47:45+01:00"},{"datasetid": "worldcitiespop", "recordid": "07917c5d402036d7a496f75828e1ba5e91c2e053", "fields": {"city": "bukowno", "country": "pl", "region": "77", "geopoint": [50.262676, 19.467277], "longitude": 19.467277, "latitude": 50.262676, "accentcity": "Bukowno", "population": 10874}, "geometry": {"type": "Point", "coordinates": [19.467277, 50.262676]}, "record_timestamp": "2018-01-08T12:47:45+01:00"},{"datasetid": "worldcitiespop", "recordid": "3a29edd4ab69365e04ecdcec5c7009b5df8de71c", "fields": {"city": "bytow", "country": "pl", "region": "82", "geopoint": [54.176362, 17.487638], "longitude": 17.487638, "latitude": 54.176362, "accentcity": "Bytow", "population": 16724}, "geometry": {"type": "Point", "coordinates": [17.487638, 54.176362]}, "record_timestamp": "2018-01-08T12:47:45+01:00"},{"datasetid": "worldcitiespop", "recordid": "d9902eee579e208f608a36b63d924511ef4ea5a4", "fields": {"city": "almere", "country": "nl", "region": "16", "geopoint": [52.388101, 5.235395], "longitude": 5.235395, "latitude": 52.388101, "accentcity": "Almere", "population": 186457}, "geometry": {"type": "Point", "coordinates": [5.235395, 52.388101]}, "record_timestamp": "2018-01-08T12:47:45+01:00"},{"datasetid": "worldcitiespop", "recordid": "b135f323703f6c9c7ee2a6d0d407d993d3fca84d", "fields": {"city": "heiloo", "country": "nl", "region": "07", "geopoint": [52.60252, 4.68815], "longitude": 4.68815, "latitude": 52.60252, "accentcity": "Heiloo", "population": 22526}, "geometry": {"type": "Point", "coordinates": [4.68815, 52.60252]}, "record_timestamp": "2018-01-08T12:47:45+01:00"},{"datasetid": "worldcitiespop", "recordid": "5f66b3770fd2984692134f00e7273a7897e5fe99", "fields": {"city": "caldas da rainha", "country": "pt", "region": "13", "geopoint": [39.403255, -9.138387], "longitude": -9.138387, "latitude": 39.403255, "accentcity": "Caldas da Rainha", "population": 26647}, "geometry": {"type": "Point", "coordinates": [-9.138387, 39.403255]}, "record_timestamp": "2018-01-08T12:47:45+01:00"},{"datasetid": "worldcitiespop", "recordid": "51c5cc31fa6a3e6a27a62ab0f783ee88fc798a4c", "fields": {"city": "ferreiros", "country": "pt", "region": "04", "geopoint": [41.35, -8.55], "longitude": -8.55, "latitude": 41.35, "accentcity": "Ferreiros", "population": 7870}, "geometry": {"type": "Point", "coordinates": [-8.55, 41.35]}, "record_timestamp": "2018-01-08T12:47:45+01:00"},{"datasetid": "worldcitiespop", "recordid": "f635a2423b2c0c592e91d6c74528c2adb26cb86b", "fields": {"city": "monchique", "country": "pt", "region": "09", "geopoint": [37.317748, -8.555294], "longitude": -8.555294, "latitude": 37.317748, "accentcity": "Monchique", "population": 5421}, "geometry": {"type": "Point", "coordinates": [-8.555294, 37.317748]}, "record_timestamp": "2018-01-08T12:47:45+01:00"},{"datasetid": "worldcitiespop", "recordid": "4ca6af03b85175837921cb21c900eb59d79ac352", "fields": {"city": "amadora", "country": "pt", "region": "14", "geopoint": [38.759711, -9.239708], "longitude": -9.239708, "latitude": 38.759711, "accentcity": "Amadora", "population": 178856}, "geometry": {"type": "Point", "coordinates": [-9.239708, 38.759711]}, "record_timestamp": "2018-01-08T12:47:45+01:00"},{"datasetid": "worldcitiespop", "recordid": "c2a268ec456dd2a4490dfad4d5375011a10d4889", "fields": {"city": "chaves", "country": "pt", "region": "21", "geopoint": [41.740186, -7.468789], "longitude": -7.468789, "latitude": 41.740186, "accentcity": "Chaves", "population": 13066}, "geometry": {"type": "Point", "coordinates": [-7.468789, 41.740186]}, "record_timestamp": "2018-01-08T12:47:45+01:00"},{"datasetid": "worldcitiespop", "recordid": "45d213b756760de0f2723c9eea00aae653ce6671", "fields": {"city": "olival", "country": "pt", "region": "17", "geopoint": [41.050244, -8.544163], "longitude": -8.544163, "latitude": 41.050244, "accentcity": "Olival", "population": 5715}, "geometry": {"type": "Point", "coordinates": [-8.544163, 41.050244]}, "record_timestamp": "2018-01-08T12:47:45+01:00"},{"datasetid": "worldcitiespop", "recordid": "f4c754ff9e75dc1d89f92875882c8059ca3da5ce", "fields": {"city": "oliveira de azemeis", "country": "pt", "region": "02", "geopoint": [40.84101, -8.475554], "longitude": -8.475554, "latitude": 40.84101, "accentcity": "Oliveira de Azemeis", "population": 11771}, "geometry": {"type": "Point", "coordinates": [-8.475554, 40.84101]}, "record_timestamp": "2018-01-08T12:47:45+01:00"},{"datasetid": "worldcitiespop", "recordid": "7834f84dc3a8a841e1d114874a7cc70eade39a66", "fields": {"city": "kazan", "country": "ru", "region": "73", "geopoint": [55.78874, 49.122144], "longitude": 49.122144, "latitude": 55.78874, "accentcity": "Kazan", "population": 1104750}, "geometry": {"type": "Point", "coordinates": [49.122144, 55.78874]}, "record_timestamp": "2018-01-08T12:47:45+01:00"},{"datasetid": "worldcitiespop", "recordid": "c9a35b03c2cbad50cb3180d001f012e6eb23d8bc", "fields": {"city": "kanevskaya", "country": "ru", "region": "38", "geopoint": [46.0849, 38.9596], "longitude": 38.9596, "latitude": 46.0849, "accentcity": "Kanevskaya", "population": 45334}, "geometry": {"type": "Point", "coordinates": [38.9596, 46.0849]}, "record_timestamp": "2018-01-08T12:47:45+01:00"},{"datasetid": "worldcitiespop", "recordid": "2e2851553ed8bed66a512166249cea168f1fcdc1", "fields": {"city": "baicoi", "country": "ro", "region": "30", "geopoint": [45.033333, 25.85], "longitude": 25.85, "latitude": 45.033333, "accentcity": "Baicoi", "population": 19869}, "geometry": {"type": "Point", "coordinates": [25.85, 45.033333]}, "record_timestamp": "2018-01-08T12:47:45+01:00"},{"datasetid": "worldcitiespop", "recordid": "76bcf26179688b05bf77ef7cd354dfc98154f594", "fields": {"city": "ribeira grande", "country": "pt", "region": "23", "geopoint": [38.516667, -28.7], "longitude": -28.7, "latitude": 38.516667, "accentcity": "Ribeira Grande", "population": 5198}, "geometry": {"type": "Point", "coordinates": [-28.7, 38.516667]}, "record_timestamp": "2018-01-08T12:47:45+01:00"},{"datasetid": "worldcitiespop", "recordid": "921fde7c5e97fe584e408b17d176de406f647290", "fields": {"city": "olecko", "country": "pl", "region": "85", "geopoint": [54.036431, 22.508387], "longitude": 22.508387, "latitude": 54.036431, "accentcity": "Olecko", "population": 15923}, "geometry": {"type": "Point", "coordinates": [22.508387, 54.036431]}, "record_timestamp": "2018-01-08T12:47:45+01:00"},{"datasetid": "worldcitiespop", "recordid": "78cbc07102d5b1ff074816fb41b77636925455d8", "fields": {"city": "chapaevsk", "country": "ru", "region": "65", "geopoint": [52.9771, 49.7086], "longitude": 49.7086, "latitude": 52.9771, "accentcity": "Chapaevsk", "population": 70148}, "geometry": {"type": "Point", "coordinates": [49.7086, 52.9771]}, "record_timestamp": "2018-01-08T12:47:45+01:00"},{"datasetid": "worldcitiespop", "recordid": "ab3ef66cdbaf12e031c7d794a2a2f17b15a9166c", "fields": {"city": "buguruslan", "country": "ru", "region": "55", "geopoint": [53.6554, 52.442], "longitude": 52.442, "latitude": 53.6554, "accentcity": "Buguruslan", "population": 53512}, "geometry": {"type": "Point", "coordinates": [52.442, 53.6554]}, "record_timestamp": "2018-01-08T12:47:45+01:00"},{"datasetid": "worldcitiespop", "recordid": "82022533ed20a19957c2e226e00cfb4c51d3723e", "fields": {"city": "neerijnen", "country": "nl", "region": "03", "geopoint": [51.83442, 5.278538], "longitude": 5.278538, "latitude": 51.83442, "accentcity": "Neerijnen", "population": 11782}, "geometry": {"type": "Point", "coordinates": [5.278538, 51.83442]}, "record_timestamp": "2018-01-08T12:47:45+01:00"},